{"type": "FeatureCollection", "features": [{"type":"Feature","geometry":{"type":"Point","coordinates":[-73.951116,40.781354]},"properties":{"cartodb_id":35,"city":"New York","name":"Yorkville","zip":"10128","url":"http://www.usps.com/","bbl":"1015367501","streetname":"3 AVENUE","housenum":"1617","bin":"1086170"}},{"type":"Feature","geometry":{"type":"Point","coordinates":[-73.975445,40.753255]},"properties":{"cartodb_id":1,"city":"New York","name":"Grand Central Station","zip":"10017","url":"http://www.usps.com/","bbl":"1012800090","streetname":"LEXINGTON AVENUE","housenum":"450","bin":"1085671"}},{"type":"Feature","geometry":{"type":"Point","coordinates":[-73.990841,40.757113]},"properties":{"cartodb_id":2,"city":"New York","name":"Port Authority Convenience","zip":"10018","url":"http://www.usps.com/","bbl":"1010320029","streetname":"8 AVENUE","housenum":"625","bin":"1083268"}},{"type":"Feature","geometry":{"type":"Point","coordinates":[-73.989822,40.754183]},"properties":{"cartodb_id":3,"city":"New York","name":"Midtown Station","zip":"10018","url":"http://www.usps.com/","bbl":"1007880026","streetname":"WEST 38 STREET","housenum":"223","bin":"1014478"}},{"type":"Feature","geometry":{"type":"Point","coordinates":[-73.986469,40.763834]},"properties":{"cartodb_id":4,"city":"New York","name":"Radio City Station","zip":"10019","url":"http://www.usps.com/","bbl":"1010420044","streetname":"WEST 52 STREET","housenum":"322","bin":"1025213"}},{"type":"Feature","geometry":{"type":"Point","coordinates":[-73.978018,40.758271]},"properties":{"cartodb_id":5,"city":"New York","name":"Rockefeller Center","zip":"10020","url":"http://www.usps.com/","bbl":"1012650050","streetname":"5 AVENUE","housenum":"610","bin":"1082656"}},{"type":"Feature","geometry":{"type":"Point","coordinates":[-73.960116,40.768077]},"properties":{"cartodb_id":6,"city":"New York","name":"Lenox Hill Station","zip":"10021","url":"http://www.usps.com/","bbl":"1014250013","streetname":"EAST 70 STREET","housenum":"217","bin":"1043922"}},{"type":"Feature","geometry":{"type":"Point","coordinates":[-73.967863,40.758284]},"properties":{"cartodb_id":7,"city":"New York","name":"FDR Station","zip":"10022","url":"http://www.usps.com/","bbl":"1013280001","streetname":"3 AVENUE","housenum":"909","bin":"1038570"}},{"type":"Feature","geometry":{"type":"Point","coordinates":[-73.983304,40.769642]},"properties":{"cartodb_id":8,"city":"New York","name":"Columbus Circle","zip":"10023","url":"http://www.usps.com/","bbl":"1011130008","streetname":"WEST 60 STREET","housenum":"27","bin":"1084277"}},{"type":"Feature","geometry":{"type":"Point","coordinates":[-73.981476,40.774805]},"properties":{"cartodb_id":9,"city":"New York","name":"Ansonia Station","zip":"10023","url":"http://www.usps.com/","bbl":"1011397503","streetname":"COLUMBUS AVENUE","housenum":"178","bin":"1084564"}},{"type":"Feature","geometry":{"type":"Point","coordinates":[-73.97457,40.78519]},"properties":{"cartodb_id":10,"city":"New York","name":"Planetarium Station","zip":"10024","url":"http://www.usps.com/","bbl":"1012140019","streetname":"WEST 83 STREET","housenum":"127","bin":"1032118"}},{"type":"Feature","geometry":{"type":"Point","coordinates":[-73.965024,40.804874]},"properties":{"cartodb_id":11,"city":"New York","name":"Columbia University","zip":"10025","url":"http://www.usps.com/","bbl":"1018830054","streetname":"WEST 112 STREET","housenum":"534","bin":"0"}},{"type":"Feature","geometry":{"type":"Point","coordinates":[-73.968612,40.792012]},"properties":{"cartodb_id":12,"city":"New York","name":"Park West Finance","zip":"10025","url":"http://www.usps.com/","bbl":"1012250029","streetname":"COLUMBUS AVENUE","housenum":"700","bin":"1032562"}},{"type":"Feature","geometry":{"type":"Point","coordinates":[-73.9674,40.79968]},"properties":{"cartodb_id":13,"city":"New York","name":"Cathedral Station","zip":"10025","url":"http://www.usps.com/","bbl":"1018760022","streetname":"WEST 104 STREET","housenum":"215","bin":"1056587"}},{"type":"Feature","geometry":{"type":"Point","coordinates":[-73.954201,40.803615]},"properties":{"cartodb_id":14,"city":"New York","name":"Morningside Station","zip":"10026","url":"http://www.usps.com/","bbl":"1018310049","streetname":"WEST 116 STREET","housenum":"232","bin":"1055244"}},{"type":"Feature","geometry":{"type":"Point","coordinates":[-73.953115,40.811463]},"properties":{"cartodb_id":15,"city":"New York","name":"Manhattanville","zip":"10027","url":"http://www.usps.com/","bbl":"1019520005","streetname":"WEST 125 STREET","housenum":"365","bin":"1059307"}},{"type":"Feature","geometry":{"type":"Point","coordinates":[-73.952744,40.777641]},"properties":{"cartodb_id":16,"city":"New York","name":"Gracie","zip":"10028","url":"http://www.usps.com/","bbl":"1015310016","streetname":"EAST 85 STREET","housenum":"229","bin":"1048767"}},{"type":"Feature","geometry":{"type":"Point","coordinates":[-73.943779,40.794777]},"properties":{"cartodb_id":17,"city":"New York","name":"Hellgate Station","zip":"10029","url":"http://www.usps.com/","bbl":"1016380024","streetname":"EAST 110 STREET","housenum":"153","bin":"1052179"}},{"type":"Feature","geometry":{"type":"Point","coordinates":[-73.924549,40.828187]},"properties":{"cartodb_id":38,"city":"Bronx","name":"Stadium","zip":"10452","url":"http://www.usps.com/","bbl":"","streetname":"GERARD AVENUE","housenum":"901","bin":"0"}},{"type":"Feature","geometry":{"type":"Point","coordinates":[-73.942553,40.819213]},"properties":{"cartodb_id":18,"city":"New York","name":"College Station","zip":"10030","url":"http://www.usps.com/","bbl":"1020260017","streetname":"WEST 140 STREET","housenum":"217","bin":"1060407"}},{"type":"Feature","geometry":{"type":"Point","coordinates":[-73.948321,40.826658]},"properties":{"cartodb_id":19,"city":"New York","name":"Hamilton Grange Station","zip":"10031","url":"http://www.usps.com/","bbl":"1020780017","streetname":"WEST 146 STREET","housenum":"521","bin":"1061961"}},{"type":"Feature","geometry":{"type":"Point","coordinates":[-73.944005,40.834263]},"properties":{"cartodb_id":20,"city":"New York","name":"Fort Washington","zip":"10032","url":"http://www.usps.com/","bbl":"1021160001","streetname":"WEST 158 STREET","housenum":"556","bin":"1084192"}},{"type":"Feature","geometry":{"type":"Point","coordinates":[-73.938639,40.838422]},"properties":{"cartodb_id":21,"city":"New York","name":"Audubon Station","zip":"10032","url":"http://www.usps.com/","bbl":"1021230045","streetname":"WEST 165 STREET","housenum":"511","bin":"1085733"}},{"type":"Feature","geometry":{"type":"Point","coordinates":[-73.933388,40.848519]},"properties":{"cartodb_id":22,"city":"New York","name":"Washington Bridge Station","zip":"10033","url":"http://www.usps.com/","bbl":"1021530081","streetname":"WEST 180 STREET","housenum":"555","bin":"1081876"}},{"type":"Feature","geometry":{"type":"Point","coordinates":[-73.922925,40.866185]},"properties":{"cartodb_id":23,"city":"New York","name":"Inwood Station","zip":"10034","url":"http://www.usps.com/","bbl":"1022340025","streetname":"VERMILYEA AVENUE","housenum":"90","bin":"1064904"}},{"type":"Feature","geometry":{"type":"Point","coordinates":[-73.936959,40.803563]},"properties":{"cartodb_id":24,"city":"New York","name":"Triborough Station","zip":"10035","url":"http://www.usps.com/","bbl":"1017730027","streetname":"EAST 124 STREET","housenum":"167","bin":"1054464"}},{"type":"Feature","geometry":{"type":"Point","coordinates":[-73.981693,40.754951]},"properties":{"cartodb_id":25,"city":"New York","name":"Bryant","zip":"10036","url":"http://www.usps.com/","bbl":"1012590019","streetname":"WEST 43 STREET","housenum":"23","bin":"1034206"}},{"type":"Feature","geometry":{"type":"Point","coordinates":[-73.978996,40.757094]},"properties":{"cartodb_id":26,"city":"New York","name":"Appraisers Stores","zip":"10036","url":"http://www.usps.com/","bbl":"1012630034","streetname":"5 AVENUE","housenum":"580","bin":"1034484"}},{"type":"Feature","geometry":{"type":"Point","coordinates":[-73.99195,40.757674]},"properties":{"cartodb_id":27,"city":"New York","name":"Times Square Station","zip":"10036","url":"http://www.usps.com/","bbl":"1010320054","streetname":"WEST 42 STREET","housenum":"340","bin":"1024927"}},{"type":"Feature","geometry":{"type":"Point","coordinates":[-73.936793,40.814687]},"properties":{"cartodb_id":28,"city":"New York","name":"Lincolnton Station","zip":"10037","url":"http://www.usps.com/","bbl":"1017350040","streetname":"5 AVENUE","housenum":"2266","bin":"1053920"}},{"type":"Feature","geometry":{"type":"Point","coordinates":[-74.001928,40.708635]},"properties":{"cartodb_id":29,"city":"New York","name":"Peck Slip Station","zip":"10038","url":"http://www.usps.com/","bbl":"1001060009","streetname":"PECK SLIP","housenum":"1","bin":"1001363"}},{"type":"Feature","geometry":{"type":"Point","coordinates":[-73.936467,40.827704]},"properties":{"cartodb_id":30,"city":"New York","name":"Colonial Park Station","zip":"10039","url":"http://www.usps.com/","bbl":"1020390045","streetname":"MACOMBS PLACE","housenum":"99","bin":"1060622"}},{"type":"Feature","geometry":{"type":"Point","coordinates":[-73.931072,40.858882]},"properties":{"cartodb_id":31,"city":"New York","name":"Fort George Station","zip":"10040","url":"http://www.usps.com/","bbl":"1021700103","streetname":"BROADWAY","housenum":"4558","bin":"1064061"}},{"type":"Feature","geometry":{"type":"Point","coordinates":[-73.946391,40.764888]},"properties":{"cartodb_id":32,"city":"New York","name":"Roosevelt Island","zip":"10044","url":"http://www.usps.com/","bbl":"1013730001","streetname":"MAIN STREET","housenum":"694","bin":"1083211"}},{"type":"Feature","geometry":{"type":"Point","coordinates":[-73.950954,40.771237]},"properties":{"cartodb_id":33,"city":"New York","name":"Cherokee","zip":"10075","url":"http://www.usps.com/","bbl":"1014737502","streetname":"YORK AVENUE","housenum":"1483","bin":"1076320"}},{"type":"Feature","geometry":{"type":"Point","coordinates":[-73.985737,40.748443]},"properties":{"cartodb_id":34,"city":"New York","name":"Empire State","zip":"10118","url":"http://www.usps.com/","bbl":"1008350041","streetname":"WEST 33 STREET","housenum":"19","bin":"1015862"}},{"type":"Feature","geometry":{"type":"Point","coordinates":[-73.9139,40.823718]},"properties":{"cartodb_id":36,"city":"Bronx","name":"Melcourt","zip":"10451","url":"http://www.usps.com/","bbl":"2023820001","streetname":"MELROSE AVENUE","housenum":"860","bin":"2001490"}},{"type":"Feature","geometry":{"type":"Point","coordinates":[-73.926549,40.818914]},"properties":{"cartodb_id":37,"city":"Bronx","name":"Bronx General Post Office","zip":"10451","url":"http://www.usps.com/","bbl":"2024430400","streetname":"GRAND CONCOURSE","housenum":"558","bin":"2002459"}},{"type":"Feature","geometry":{"type":"Point","coordinates":[-73.919577,40.845736]},"properties":{"cartodb_id":39,"city":"Bronx","name":"University Heights","zip":"10452","url":"http://www.usps.com/","bbl":"2028730103","streetname":"SHAKESPEARE AVENUE","housenum":"1541","bin":"2008741"}},{"type":"Feature","geometry":{"type":"Point","coordinates":[-73.920353,40.838765]},"properties":{"cartodb_id":40,"city":"Bronx","name":"Highbridge","zip":"10452","url":"http://www.usps.com/","bbl":"2028640076","streetname":"INWOOD AVENUE","housenum":"1315","bin":"2008418"}},{"type":"Feature","geometry":{"type":"Point","coordinates":[-73.90771,40.852945]},"properties":{"cartodb_id":41,"city":"Bronx","name":"Morris Heights","zip":"10453","url":"http://www.usps.com/","bbl":"2028540036","streetname":"JEROME AVENUE","housenum":"2024","bin":"2008267"}},{"type":"Feature","geometry":{"type":"Point","coordinates":[-73.918084,40.808204]},"properties":{"cartodb_id":42,"city":"Bronx","name":"Mott Haven","zip":"10454","url":"http://www.usps.com/","bbl":"2022670069","streetname":"EAST 139 STREET","housenum":"517","bin":"2096088"}},{"type":"Feature","geometry":{"type":"Point","coordinates":[-73.905049,40.812644]},"properties":{"cartodb_id":43,"city":"Bronx","name":"Oak Point","zip":"10455","url":"http://www.usps.com/","bbl":"2026740017","streetname":"EAST 149 STREET","housenum":"839","bin":"2004899"}},{"type":"Feature","geometry":{"type":"Point","coordinates":[-73.912185,40.816333]},"properties":{"cartodb_id":44,"city":"Bronx","name":"Hub","zip":"10455","url":"http://www.usps.com/","bbl":"2023590130","streetname":"SAINT ANNS AVENUE","housenum":"633","bin":"2001151"}},{"type":"Feature","geometry":{"type":"Point","coordinates":[-73.908861,40.829967]},"properties":{"cartodb_id":45,"city":"Bronx","name":"Morrisania","zip":"10456","url":"http://www.usps.com/","bbl":"2023880034","streetname":"EAST 167 STREET","housenum":"442","bin":"2001583"}},{"type":"Feature","geometry":{"type":"Point","coordinates":[-73.898259,40.842033]},"properties":{"cartodb_id":46,"city":"Bronx","name":"Bathgate","zip":"10457","url":"http://www.usps.com/","bbl":"2029300012","streetname":"3 AVENUE","housenum":"4006","bin":"2009660"}},{"type":"Feature","geometry":{"type":"Point","coordinates":[-73.893892,40.846725]},"properties":{"cartodb_id":47,"city":"Bronx","name":"Tremont","zip":"10457","url":"http://www.usps.com/","bbl":"2030680001","streetname":"EAST TREMONT AVENUE","housenum":"575","bin":"2011959"}},{"type":"Feature","geometry":{"type":"Point","coordinates":[-73.883229,40.867799]},"properties":{"cartodb_id":48,"city":"Bronx","name":"Botanical","zip":"10458","url":"http://www.usps.com/","bbl":"2032800058","streetname":"WEBSTER AVENUE","housenum":"2963","bin":"2016445"}},{"type":"Feature","geometry":{"type":"Point","coordinates":[-73.886089,40.854659]},"properties":{"cartodb_id":49,"city":"Bronx","name":"Mount Carmel","zip":"10458","url":"http://www.usps.com/","bbl":"2030740045","streetname":"EAST 187 STREET","housenum":"652","bin":"2012174"}},{"type":"Feature","geometry":{"type":"Point","coordinates":[-73.887408,40.861244]},"properties":{"cartodb_id":50,"city":"Bronx","name":"Fordham University","zip":"10458","url":"http://www.usps.com/","bbl":"2032730001","streetname":"EAST FORDHAM ROAD","housenum":"441","bin":"2102025"}},{"type":"Feature","geometry":{"type":"Point","coordinates":[-73.890653,40.858767]},"properties":{"cartodb_id":51,"city":"Bronx","name":"Fordham","zip":"10458","url":"http://www.usps.com/","bbl":"2030420005","streetname":"EAST 188 STREET","housenum":"465","bin":"2088342"}},{"type":"Feature","geometry":{"type":"Point","coordinates":[-73.891532,40.827464]},"properties":{"cartodb_id":52,"city":"Bronx","name":"Boulevard","zip":"10459","url":"http://www.usps.com/","bbl":"2027450007","streetname":"SOUTHERN BOULEVARD","housenum":"1132","bin":"2006052"}},{"type":"Feature","geometry":{"type":"Point","coordinates":[-73.888832,40.83645]},"properties":{"cartodb_id":53,"city":"Bronx","name":"Crotona Park","zip":"10460","url":"http://www.usps.com/","bbl":"2029780182","streetname":"BOSTON ROAD","housenum":"1682","bin":"2010522"}},{"type":"Feature","geometry":{"type":"Point","coordinates":[-73.877361,40.839547]},"properties":{"cartodb_id":54,"city":"Bronx","name":"West Farms","zip":"10460","url":"http://www.usps.com/","bbl":"2039060051","streetname":"DEVOE AVENUE","housenum":"362","bin":"2028356"}},{"type":"Feature","geometry":{"type":"Point","coordinates":[-73.989068,40.750803]},"properties":{"cartodb_id":55,"city":"New York","name":"Macys Finance","zip":"10001","url":"http://www.usps.com/","bbl":"1008100001","streetname":"WEST 34 STREET","housenum":"151","bin":"1015219"}},{"type":"Feature","geometry":{"type":"Point","coordinates":[-73.987626,40.747535]},"properties":{"cartodb_id":56,"city":"New York","name":"Greeley Square","zip":"10001","url":"http://www.usps.com/","bbl":"1008330018","streetname":"WEST 31 STREET","housenum":"39","bin":"1015806"}},{"type":"Feature","geometry":{"type":"Point","coordinates":[-73.995938,40.751547]},"properties":{"cartodb_id":57,"city":"New York","name":"James A. Farley","zip":"10001","url":"http://www.usps.com/","bbl":"1007550040","streetname":"8 AVENUE","housenum":"421","bin":"1084820"}},{"type":"Feature","geometry":{"type":"Point","coordinates":[-73.987411,40.715678]},"properties":{"cartodb_id":58,"city":"New York","name":"Pitt","zip":"10002","url":"http://www.usps.com/","bbl":"1003110013","streetname":"CLINTON STREET","housenum":"185","bin":"1077606"}},{"type":"Feature","geometry":{"type":"Point","coordinates":[-73.991887,40.714177]},"properties":{"cartodb_id":59,"city":"New York","name":"Knickerbocker Station","zip":"10002","url":"http://www.usps.com/","bbl":"1002830055","streetname":"EAST BROADWAY","housenum":"128","bin":"1003586"}},{"type":"Feature","geometry":{"type":"Point","coordinates":[-73.989726,40.732033]},"properties":{"cartodb_id":60,"city":"New York","name":"Cooper Station","zip":"10003","url":"http://www.usps.com/","bbl":"1005560036","streetname":"4 AVENUE","housenum":"93","bin":"1008976"}},{"type":"Feature","geometry":{"type":"Point","coordinates":[-74.012771,40.703808]},"properties":{"cartodb_id":61,"city":"New York","name":"Whitehall Retail Unit","zip":"10004","url":"http://www.usps.com/","bbl":"1000100023","streetname":"WHITEHALL STREET","housenum":"1","bin":"1000027"}},{"type":"Feature","geometry":{"type":"Point","coordinates":[-74.008728,40.705643]},"properties":{"cartodb_id":62,"city":"New York","name":"Wall Street Retail Unit","zip":"10005","url":"http://www.usps.com/","bbl":"1000270009","streetname":"HANOVER STREET","housenum":"1","bin":"1000828"}},{"type":"Feature","geometry":{"type":"Point","coordinates":[-73.851846,40.850449]},"properties":{"cartodb_id":63,"city":"Bronx","name":"Morris Park","zip":"10461","url":"http://www.usps.com/","bbl":"2041320034","streetname":"WILLIAMSBRIDGE ROAD","housenum":"1807","bin":"2098187"}},{"type":"Feature","geometry":{"type":"Point","coordinates":[-73.811302,40.675665]},"properties":{"cartodb_id":64,"city":"South Ozone Park","name":"South Ozone Park","zip":"11420","url":"http://www.usps.com/","bbl":"4116830031","streetname":"FOCH BOULEVARD","housenum":"126-15","bin":"4252671"}},{"type":"Feature","geometry":{"type":"Point","coordinates":[-73.827374,40.689353]},"properties":{"cartodb_id":65,"city":"South Richmond Hill","name":"South Richmond Hill","zip":"11419","url":"http://www.usps.com/","bbl":"4094850001","streetname":"101 AVENUE","housenum":"117-04","bin":"4200469"}},{"type":"Feature","geometry":{"type":"Point","coordinates":[-73.827906,40.70076]},"properties":{"cartodb_id":66,"city":"Richmond Hill","name":"Richmond Hill","zip":"11418","url":"http://www.usps.com/","bbl":"4092760087","streetname":"JAMAICA AVENUE","housenum":"122-01","bin":"4193775"}},{"type":"Feature","geometry":{"type":"Point","coordinates":[-73.847336,40.680299]},"properties":{"cartodb_id":67,"city":"Ozone Park","name":"Ozone Park Finance","zip":"11417","url":"http://www.usps.com/","bbl":"4091110025","streetname":"LIBERTY AVENUE","housenum":"91-11","bin":"4189504"}},{"type":"Feature","geometry":{"type":"Point","coordinates":[-73.80714,40.700934]},"properties":{"cartodb_id":68,"city":"Jamaica","name":"Archer Ave","zip":"11435","url":"http://www.usps.com/","bbl":"4099940038","streetname":"ARCHER AVENUE","housenum":"147-21","bin":"4438708"}},{"type":"Feature","geometry":{"type":"Point","coordinates":[-73.830996,40.660279]},"properties":{"cartodb_id":69,"city":"Howard Beach","name":"Station B","zip":"11414","url":"http://www.usps.com/","bbl":"4141820006","streetname":"159 AVENUE","housenum":"102-12","bin":"4295480"}},{"type":"Feature","geometry":{"type":"Point","coordinates":[-73.816994,40.707294]},"properties":{"cartodb_id":70,"city":"Jamaica","name":"Briarwood Finance","zip":"11435","url":"http://www.usps.com/","bbl":"4096460021","streetname":"QUEENS BOULEVARD","housenum":"138-69","bin":"4206503"}},{"type":"Feature","geometry":{"type":"Point","coordinates":[-73.858947,40.678872]},"properties":{"cartodb_id":71,"city":"Ozone Park","name":"Ozone Park Annex","zip":"11417","url":"http://www.usps.com/","bbl":"4091310045","streetname":"LIBERTY AVENUE","housenum":"78-02","bin":"4189850"}},{"type":"Feature","geometry":{"type":"Point","coordinates":[-73.839482,40.655973]},"properties":{"cartodb_id":72,"city":"Howard Beach","name":"Howard Beach","zip":"11414","url":"http://www.usps.com/","bbl":"4140300020","streetname":"CROSSBAY BOULEVARD","housenum":"160-50","bin":"4293776"}},{"type":"Feature","geometry":{"type":"Point","coordinates":[-73.861426,40.692733]},"properties":{"cartodb_id":73,"city":"Woodhaven","name":"Woodhaven","zip":"11421","url":"http://www.usps.com/","bbl":"4088470136","streetname":"FOREST PARKWAY","housenum":"86-42","bin":"4181303"}},{"type":"Feature","geometry":{"type":"Point","coordinates":[-73.797754,40.707649]},"properties":{"cartodb_id":74,"city":"Jamaica","name":"Jamaica","zip":"11432","url":"http://www.usps.com/","bbl":"4098130052","streetname":"164 STREET","housenum":"88-40","bin":"4210048"}},{"type":"Feature","geometry":{"type":"Point","coordinates":[-73.851148,40.710677]},"properties":{"cartodb_id":75,"city":"Forest Hills","name":"Parkside","zip":"11375","url":"http://www.usps.com/","bbl":"4032200033","streetname":"METROPOLITAN AVENUE","housenum":"101-19","bin":"4077081"}},{"type":"Feature","geometry":{"type":"Point","coordinates":[-73.872458,40.683897]},"properties":{"cartodb_id":76,"city":"Brooklyn","name":"Cypress Hills","zip":"11208","url":"http://www.usps.com/","bbl":"3041300061","streetname":"CRESCENT STREET","housenum":"222","bin":"3092260"}},{"type":"Feature","geometry":{"type":"Point","coordinates":[-73.810172,40.73066]},"properties":{"cartodb_id":77,"city":"Fresh Meadows","name":"Pomonok","zip":"11365","url":"http://www.usps.com/","bbl":"4067890065","streetname":"71 AVENUE","housenum":"158-05","bin":"4146991"}},{"type":"Feature","geometry":{"type":"Point","coordinates":[-73.881447,40.701721]},"properties":{"cartodb_id":78,"city":"Glendale","name":"Glendale","zip":"11385","url":"http://www.usps.com/","bbl":"4037050007","streetname":"MYRTLE AVENUE","housenum":"69-36","bin":"4090369"}},{"type":"Feature","geometry":{"type":"Point","coordinates":[-73.756468,40.69306]},"properties":{"cartodb_id":79,"city":"Saint Albans","name":"Archie Spigner","zip":"11412","url":"http://www.usps.com/","bbl":"4126130001","streetname":"LINDEN BOULEVARD","housenum":"195-04","bin":"4271625"}},{"type":"Feature","geometry":{"type":"Point","coordinates":[-73.785879,40.727454]},"properties":{"cartodb_id":80,"city":"Fresh Meadows","name":"Utopia","zip":"11366","url":"http://www.usps.com/","bbl":"4072480008","streetname":"UNION TURNPIKE","housenum":"182-04","bin":"4155926"}},{"type":"Feature","geometry":{"type":"Point","coordinates":[-73.751197,40.679329]},"properties":{"cartodb_id":81,"city":"Springfield Gardens","name":"Springfield Gardens","zip":"11413","url":"http://www.usps.com/","bbl":"4130120020","streetname":"MERRICK BOULEVARD","housenum":"218-10","bin":"4279950"}},{"type":"Feature","geometry":{"type":"Point","coordinates":[-73.761615,40.71319]},"properties":{"cartodb_id":82,"city":"Hollis","name":"Hollis","zip":"11423","url":"http://www.usps.com/","bbl":"4108280028","streetname":"JAMAICA AVENUE","housenum":"197-40","bin":"4231580"}},{"type":"Feature","geometry":{"type":"Point","coordinates":[-73.883171,40.712666]},"properties":{"cartodb_id":83,"city":"Middle Village","name":"Middle Village","zip":"11379","url":"http://www.usps.com/","bbl":"4030550022","streetname":"METROPOLITAN AVENUE","housenum":"71-35","bin":"4071317"}},{"type":"Feature","geometry":{"type":"Point","coordinates":[-73.764723,40.718968]},"properties":{"cartodb_id":84,"city":"Hollis","name":"Holliswood","zip":"11423","url":"http://www.usps.com/","bbl":"4105300001","streetname":"HILLSIDE AVENUE","housenum":"197-33","bin":"4224338"}},{"type":"Feature","geometry":{"type":"Point","coordinates":[-73.883279,40.648814]},"properties":{"cartodb_id":85,"city":"Brooklyn","name":"Spring Creek","zip":"11239","url":"http://www.usps.com/","bbl":"3044520001","streetname":"PENNSYLVANIA AVENUE","housenum":"1310","bin":"3342903"}},{"type":"Feature","geometry":{"type":"Point","coordinates":[-73.895713,40.700449]},"properties":{"cartodb_id":86,"city":"Ridgewood","name":"Ridgewood","zip":"11385","url":"http://www.usps.com/","bbl":"4035900001","streetname":"MYRTLE AVENUE","housenum":"60-60","bin":"4086758"}},{"type":"Feature","geometry":{"type":"Point","coordinates":[-73.750478,40.714553]},"properties":{"cartodb_id":87,"city":"Queens Village","name":"Queens Village","zip":"11428","url":"http://www.usps.com/","bbl":"4108350051","streetname":"JAMAICA AVENUE","housenum":"209-20","bin":"4231694"}},{"type":"Feature","geometry":{"type":"Point","coordinates":[-73.897828,40.707549]},"properties":{"cartodb_id":88,"city":"Ridgewood","name":"Fresh Pond","zip":"11385","url":"http://www.usps.com/","bbl":"4035290066","streetname":"WOODBINE STREET","housenum":"60-80","bin":"4084939"}},{"type":"Feature","geometry":{"type":"Point","coordinates":[-73.740138,40.659629]},"properties":{"cartodb_id":89,"city":"Rosedale","name":"Rosedale Station","zip":"11422","url":"http://www.usps.com/","bbl":"4135470002","streetname":"243 STREET","housenum":"145-06","bin":"4287951"}},{"type":"Feature","geometry":{"type":"Point","coordinates":[-73.731917,40.692814]},"properties":{"cartodb_id":90,"city":"Cambria Heights","name":"Cambria Heights Station","zip":"11411","url":"http://www.usps.com/","bbl":"4113300001","streetname":"LINDEN HEIGHTS","housenum":"229-01","bin":"4244646"}},{"type":"Feature","geometry":{"type":"Point","coordinates":[-73.913985,40.684582]},"properties":{"cartodb_id":91,"city":"Brooklyn","name":"Halsey","zip":"11233","url":"http://www.usps.com/","bbl":"3014990013","streetname":"MACDONOUGH STREET","housenum":"805","bin":"3040252"}},{"type":"Feature","geometry":{"type":"Point","coordinates":[-73.895757,40.72761]},"properties":{"cartodb_id":92,"city":"Maspeth","name":"Maspeth Station","zip":"11378","url":"http://www.usps.com/","bbl":"4023980068","streetname":"69 STREET","housenum":"55-02","bin":"4055487"}},{"type":"Feature","geometry":{"type":"Point","coordinates":[-73.916723,40.654587]},"properties":{"cartodb_id":93,"city":"Brooklyn","name":"Martin Luther King Jr Station","zip":"11212","url":"http://www.usps.com/","bbl":"3047150036","streetname":"CHURCH AVENUE","housenum":"9402","bin":"3346903"}},{"type":"Feature","geometry":{"type":"Point","coordinates":[-73.776002,40.67858]},"properties":{"cartodb_id":94,"city":"Jamaica","name":"Rochdale Village Station","zip":"11434","url":"http://www.usps.com/","bbl":"4124950002","streetname":"BAISLEY BOULEVARD","housenum":"165-100","bin":"4448681"}},{"type":"Feature","geometry":{"type":"Point","coordinates":[-73.730168,40.727204]},"properties":{"cartodb_id":95,"city":"Bellerose","name":"Bellerose Station","zip":"11426","url":"http://www.usps.com/","bbl":"4079850048","streetname":"BRADDOCK AVENUE","housenum":"237-15","bin":"4167467"}},{"type":"Feature","geometry":{"type":"Point","coordinates":[-73.873071,40.756146]},"properties":{"cartodb_id":96,"city":"Jackson Heights","name":"Junction Boulevard Station","zip":"11372","url":"http://www.usps.com/","bbl":"4017100067","streetname":"JUNCTION BOULEVARD","housenum":"33-23","bin":"4042372"}},{"type":"Feature","geometry":{"type":"Point","coordinates":[-73.902722,40.746366]},"properties":{"cartodb_id":97,"city":"Woodside","name":"Woodside Station","zip":"11377","url":"http://www.usps.com/","bbl":"4012310010","streetname":"61 STREET","housenum":"39-25","bin":"4028366"}},{"type":"Feature","geometry":{"type":"Point","coordinates":[-73.929573,40.64126]},"properties":{"cartodb_id":98,"city":"Brooklyn","name":"Farragut Station","zip":"11203","url":"http://www.usps.com/","bbl":"3047800018","streetname":"UTICA AVENUE","housenum":"1284","bin":"3106176"}},{"type":"Feature","geometry":{"type":"Point","coordinates":[-73.777592,40.778527]},"properties":{"cartodb_id":99,"city":"Bayside","name":"Bay Terrace Station","zip":"11360","url":"http://www.usps.com/","bbl":"4059000002","streetname":"26 AVENUE","housenum":"212-71","bin":"4439466"}},{"type":"Feature","geometry":{"type":"Point","coordinates":[-73.872321,40.773133]},"properties":{"cartodb_id":100,"city":"Flushing","name":"LA Guardia Airport","zip":"11371","url":"http://www.usps.com/","bbl":"4009260001","streetname":"MAIN TERMINAL","housenum":"1","bin":"0"}},{"type":"Feature","geometry":{"type":"Point","coordinates":[-73.9594,40.579093]},"properties":{"cartodb_id":101,"city":"Brooklyn","name":"Brighton Finance Station","zip":"11235","url":"http://www.usps.com/","bbl":"3087070065","streetname":"CONEY ISLAND AVENUE","housenum":"3157","bin":"3245352"}},{"type":"Feature","geometry":{"type":"Point","coordinates":[-73.951758,40.593182]},"properties":{"cartodb_id":102,"city":"Brooklyn","name":"Homecrest Station","zip":"11229","url":"http://www.usps.com/","bbl":"3074030029","streetname":"EAST 19 STREET","housenum":"2370","bin":"3202082"}},{"type":"Feature","geometry":{"type":"Point","coordinates":[-73.951653,40.587844]},"properties":{"cartodb_id":103,"city":"Brooklyn","name":"Bay Station Station","zip":"11235","url":"http://www.usps.com/","bbl":"3074620007","streetname":"EAST 18 STREET","housenum":"2628","bin":"3204970"}},{"type":"Feature","geometry":{"type":"Point","coordinates":[-73.989506,40.695576]},"properties":{"cartodb_id":104,"city":"Brooklyn","name":"General Post Office Station","zip":"11201","url":"http://www.usps.com/","bbl":"3001270001","streetname":"CADMAN PLAZA EAST","housenum":"271","bin":"3000242"}},{"type":"Feature","geometry":{"type":"Point","coordinates":[-73.979792,40.684673]},"properties":{"cartodb_id":105,"city":"Brooklyn","name":"Times Plaza Station","zip":"11217","url":"http://www.usps.com/","bbl":"3001860020","streetname":"ATLANTIC AVENUE","housenum":"542","bin":"3001006"}},{"type":"Feature","geometry":{"type":"Point","coordinates":[-73.931101,40.655927]},"properties":{"cartodb_id":106,"city":"Brooklyn","name":"Rugby Station","zip":"11203","url":"http://www.usps.com/","bbl":"3046360012","streetname":"UTICA AVENUE","housenum":"726","bin":"3100813"}},{"type":"Feature","geometry":{"type":"Point","coordinates":[-73.963704,40.693473]},"properties":{"cartodb_id":107,"city":"Brooklyn","name":"Pratt Station","zip":"11205","url":"http://www.usps.com/","bbl":"3019050040","streetname":"MYRTLE AVENUE","housenum":"524","bin":"3259561"}},{"type":"Feature","geometry":{"type":"Point","coordinates":[-73.937425,40.670587]},"properties":{"cartodb_id":108,"city":"Brooklyn","name":"St. Johns Station","zip":"11213","url":"http://www.usps.com/","bbl":"3013820031","streetname":"ST JOHNS PLACE","housenum":"1234","bin":"3036958"}},{"type":"Feature","geometry":{"type":"Point","coordinates":[-73.951777,40.664143]},"properties":{"cartodb_id":109,"city":"Brooklyn","name":"Lefferts Station","zip":"11225","url":"http://www.usps.com/","bbl":"3013080047","streetname":"EMPIRE BOULEVARD","housenum":"315","bin":"3034526"}},{"type":"Feature","geometry":{"type":"Point","coordinates":[-73.962782,40.682313]},"properties":{"cartodb_id":110,"city":"Brooklyn","name":"Adlephi Station","zip":"11238","url":"http://www.usps.com/","bbl":"3020140019","streetname":"FULTON STREET","housenum":"950","bin":"3057636"}},{"type":"Feature","geometry":{"type":"Point","coordinates":[-73.919748,40.704344]},"properties":{"cartodb_id":111,"city":"Brooklyn","name":"Wyckoff Station","zip":"11237","url":"http://www.usps.com/","bbl":"3032370033","streetname":"WYCKOFF AVENUE","housenum":"86","bin":"3073649"}},{"type":"Feature","geometry":{"type":"Point","coordinates":[-73.941224,40.702036]},"properties":{"cartodb_id":112,"city":"Brooklyn","name":"Metropolitan Station","zip":"11206","url":"http://www.usps.com/","bbl":"3031200016","streetname":"DEBEVOISE STREET","housenum":"47","bin":"3071615"}},{"type":"Feature","geometry":{"type":"Point","coordinates":[-73.896503,40.676101]},"properties":{"cartodb_id":113,"city":"Brooklyn","name":"East New York Station","zip":"11207","url":"http://www.usps.com/","bbl":"3036700001","streetname":"ATLANTIC AVENUE","housenum":"2645","bin":"3083284"}},{"type":"Feature","geometry":{"type":"Point","coordinates":[-73.872527,40.672931]},"properties":{"cartodb_id":114,"city":"Brooklyn","name":"New Lots Station","zip":"11208","url":"http://www.usps.com/","bbl":"3042490001","streetname":"SUTTER AVENUE","housenum":"1223","bin":"3095381"}},{"type":"Feature","geometry":{"type":"Point","coordinates":[-73.911618,40.667265]},"properties":{"cartodb_id":115,"city":"Brooklyn","name":"Brownsville Station","zip":"11212","url":"http://www.usps.com/","bbl":"3035200005","streetname":"BRISTOL STREET","housenum":"167","bin":"3081031"}},{"type":"Feature","geometry":{"type":"Point","coordinates":[-73.919974,40.679017]},"properties":{"cartodb_id":116,"city":"Brooklyn","name":"Shirley A Chisholm Station","zip":"11233","url":"http://www.usps.com/","bbl":"3015300005","streetname":"FULTON STREET","housenum":"1915","bin":"3041574"}},{"type":"Feature","geometry":{"type":"Point","coordinates":[-74.027176,40.619892]},"properties":{"cartodb_id":117,"city":"Brooklyn","name":"Ft. Hamilton Station","zip":"11209","url":"http://www.usps.com/","bbl":"3060670015","streetname":"5 AVENUE","housenum":"8801","bin":"3154228"}},{"type":"Feature","geometry":{"type":"Point","coordinates":[-74.012807,40.615532]},"properties":{"cartodb_id":118,"city":"Brooklyn","name":"Dyker Heights Station","zip":"11228","url":"http://www.usps.com/","bbl":"3063080044","streetname":"13 AVENUE","housenum":"8320","bin":"3164316"}},{"type":"Feature","geometry":{"type":"Point","coordinates":[-73.96579,40.625962]},"properties":{"cartodb_id":119,"city":"Brooklyn","name":"Midwood Station","zip":"11230","url":"http://www.usps.com/","bbl":"3065230021","streetname":"CONEY ISLAND AVENUE","housenum":"1288","bin":"3170997"}},{"type":"Feature","geometry":{"type":"Point","coordinates":[-74.00268,40.604194]},"properties":{"cartodb_id":120,"city":"Brooklyn","name":"Bath Beach Station","zip":"11214","url":"http://www.usps.com/","bbl":"3063710001","streetname":"BENSON AVENUE","housenum":"1865","bin":"3166673"}},{"type":"Feature","geometry":{"type":"Point","coordinates":[-73.896851,40.646489]},"properties":{"cartodb_id":121,"city":"Brooklyn","name":"Canarsie Station","zip":"11236","url":"http://www.usps.com/","bbl":"3081900001","streetname":"FLATLANDS AVENUE","housenum":"10201","bin":"3229834"}},{"type":"Feature","geometry":{"type":"Point","coordinates":[-73.950909,40.678829]},"properties":{"cartodb_id":122,"city":"Brooklyn","name":"Breevort Station","zip":"11216","url":"http://www.usps.com/","bbl":"3018660013","streetname":"ATLANTIC AVENUE","housenum":"1205","bin":"3053928"}},{"type":"Feature","geometry":{"type":"Point","coordinates":[-73.971747,40.596839]},"properties":{"cartodb_id":123,"city":"Brooklyn","name":"Gravesend Station","zip":"11223","url":"http://www.usps.com/","bbl":"3071240018","streetname":"AVENUE U","housenum":"344","bin":"3192673"}},{"type":"Feature","geometry":{"type":"Point","coordinates":[-73.995416,40.634872]},"properties":{"cartodb_id":124,"city":"Brooklyn","name":"Blythbourne Station","zip":"11219","url":"http://www.usps.com/","bbl":"3056550001","streetname":"51 STREET","housenum":"1200","bin":"3138346"}},{"type":"Feature","geometry":{"type":"Point","coordinates":[-74.008749,40.639353]},"properties":{"cartodb_id":125,"city":"Brooklyn","name":"Bay Ridge Station","zip":"11220","url":"http://www.usps.com/","bbl":"3008340007","streetname":"7 AVENUE","housenum":"5501","bin":"3015130"}},{"type":"Feature","geometry":{"type":"Point","coordinates":[-73.921553,40.689452]},"properties":{"cartodb_id":126,"city":"Brooklyn","name":"Bushwick Station","zip":"11221","url":"http://www.usps.com/","bbl":"3033390045","streetname":"BROADWAY","housenum":"1369","bin":"3251928"}},{"type":"Feature","geometry":{"type":"Point","coordinates":[-73.957185,40.710064]},"properties":{"cartodb_id":127,"city":"Brooklyn","name":"Williamsburg Station","zip":"11211","url":"http://www.usps.com/","bbl":"3024340024","streetname":"SOUTH 4 STREET","housenum":"263","bin":"3063326"}},{"type":"Feature","geometry":{"type":"Point","coordinates":[-73.954482,40.726267]},"properties":{"cartodb_id":128,"city":"Brooklyn","name":"Greenpoint Station","zip":"11222","url":"http://www.usps.com/","bbl":"3026170007","streetname":"MESEROLE AVENUE","housenum":"66","bin":"3065498"}},{"type":"Feature","geometry":{"type":"Point","coordinates":[-73.994028,40.575944]},"properties":{"cartodb_id":129,"city":"Brooklyn","name":"Coney Island Station","zip":"11224","url":"http://www.usps.com/","bbl":"3070120051","streetname":"MERMAID AVENUE","housenum":"2727","bin":"3188878"}},{"type":"Feature","geometry":{"type":"Point","coordinates":[-73.956368,40.650863]},"properties":{"cartodb_id":130,"city":"Brooklyn","name":"Flatbush Station","zip":"11226","url":"http://www.usps.com/","bbl":"3050890051","streetname":"CHURCH AVENUE","housenum":"2273","bin":"3116871"}},{"type":"Feature","geometry":{"type":"Point","coordinates":[-73.987063,40.669891]},"properties":{"cartodb_id":131,"city":"Brooklyn","name":"Van Brunt Station","zip":"11215","url":"http://www.usps.com/","bbl":"3010040055","streetname":"9 STREET","housenum":"275","bin":"3022104"}},{"type":"Feature","geometry":{"type":"Point","coordinates":[-74.001804,40.674063]},"properties":{"cartodb_id":132,"city":"Brooklyn","name":"Red Hook Station","zip":"11231","url":"http://www.usps.com/","bbl":"3005620004","streetname":"CLINTON STREET","housenum":"615","bin":"3008560"}},{"type":"Feature","geometry":{"type":"Point","coordinates":[-73.948571,40.745708]},"properties":{"cartodb_id":133,"city":"Long Island City","name":"Long Island City Main Post Office","zip":"11101","url":"http://www.usps.com/","bbl":"4000550001","streetname":"21 STREET","housenum":"46-02","bin":"4000465"}},{"type":"Feature","geometry":{"type":"Point","coordinates":[-73.941038,40.750499]},"properties":{"cartodb_id":134,"city":"Long Island City","name":"Plaza Station","zip":"11101","url":"http://www.usps.com/","bbl":"4004240019","streetname":"QUEENS PLAZA SOUTH","housenum":"24-18","bin":"4005063"}},{"type":"Feature","geometry":{"type":"Point","coordinates":[-73.750604,40.603414]},"properties":{"cartodb_id":135,"city":"Far Rockaway","name":"Far Rockaway Station","zip":"11691","url":"http://www.usps.com/","bbl":"4155570017","streetname":"MOTT AVENUE","housenum":"18-36","bin":"4298233"}},{"type":"Feature","geometry":{"type":"Point","coordinates":[-73.828154,40.75645]},"properties":{"cartodb_id":136,"city":"Flushing","name":"Flushing Main Post Office Station","zip":"11355","url":"http://www.usps.com/","bbl":"4051340008","streetname":"MAIN STREET","housenum":"41-65","bin":"4115669"}},{"type":"Feature","geometry":{"type":"Point","coordinates":[-73.949264,40.752152]},"properties":{"cartodb_id":137,"city":"Long Island City","name":"Parcel Post Station","zip":"11101","url":"http://www.usps.com/","bbl":"4004560001","streetname":"10 STREET","housenum":"43-10","bin":"4005263"}},{"type":"Feature","geometry":{"type":"Point","coordinates":[-73.916335,40.757969]},"properties":{"cartodb_id":138,"city":"Astoria","name":"Steinway Station","zip":"11103","url":"http://www.usps.com/","bbl":"4006930008","streetname":"BROADWAY","housenum":"43-01","bin":"4011837"}},{"type":"Feature","geometry":{"type":"Point","coordinates":[-73.910811,40.761707]},"properties":{"cartodb_id":139,"city":"Astoria","name":"Grand Finance Station","zip":"11103","url":"http://www.usps.com/","bbl":"4007140183","streetname":"30 AVENUE","housenum":"45-08","bin":"4012688"}},{"type":"Feature","geometry":{"type":"Point","coordinates":[-73.920447,40.74267]},"properties":{"cartodb_id":140,"city":"Sunnyside","name":"Sunnyside Station","zip":"11104","url":"http://www.usps.com/","bbl":"4001660020","streetname":"44 STREET","housenum":"45-15","bin":"4001967"}},{"type":"Feature","geometry":{"type":"Point","coordinates":[-73.949483,40.751913]},"properties":{"cartodb_id":141,"city":"Long Island City","name":"Woolsey Station","zip":"11101","url":"http://www.usps.com/","bbl":"4004560001","streetname":"10 STREET","housenum":"43-10","bin":"4005263"}},{"type":"Feature","geometry":{"type":"Point","coordinates":[-73.930443,40.764896]},"properties":{"cartodb_id":142,"city":"Astoria","name":"Broadway Station","zip":"11106","url":"http://www.usps.com/","bbl":"4005540005","streetname":"BROADWAY","housenum":"21-17","bin":"4006384"}},{"type":"Feature","geometry":{"type":"Point","coordinates":[-73.789548,40.59351]},"properties":{"cartodb_id":143,"city":"Arverne","name":"Arverne Station","zip":"11692","url":"http://www.usps.com/","bbl":"4158980035","streetname":"BEACH 59 STREET","housenum":"329","bin":"4301931"}},{"type":"Feature","geometry":{"type":"Point","coordinates":[-73.814482,40.587088]},"properties":{"cartodb_id":144,"city":"Rockaway Beach","name":"Rockaway Beach Station","zip":"11693","url":"http://www.usps.com/","bbl":"4161240001","streetname":"ROCKAWAY BEACH BOULEVARD","housenum":"90-14","bin":"4303501"}},{"type":"Feature","geometry":{"type":"Point","coordinates":[-73.836451,40.582016]},"properties":{"cartodb_id":145,"city":"Rockaway Park","name":"Rockaway Park Station","zip":"11694","url":"http://www.usps.com/","bbl":"4161660450","streetname":"BEACH CHANNEL DRIVE","housenum":"113-25","bin":"4303767"}},{"type":"Feature","geometry":{"type":"Point","coordinates":[-73.826964,40.770882]},"properties":{"cartodb_id":146,"city":"Flushing","name":"Linden Hill Station","zip":"11354","url":"http://www.usps.com/","bbl":"4043430115","streetname":"UNION STREET","housenum":"29-50","bin":"4100732"}},{"type":"Feature","geometry":{"type":"Point","coordinates":[-73.847377,40.784347]},"properties":{"cartodb_id":147,"city":"College Point","name":"College Point Station","zip":"11356","url":"http://www.usps.com/","bbl":"4040740013","streetname":"15 AVENUE","housenum":"120-07","bin":"4098183"}},{"type":"Feature","geometry":{"type":"Point","coordinates":[-73.878119,40.764195]},"properties":{"cartodb_id":148,"city":"East Elmhurst","name":"East Elmhurst Station","zip":"11369","url":"http://www.usps.com/","bbl":"4011020040","streetname":"25 AVENUE","housenum":"91-07","bin":"4024206"}},{"type":"Feature","geometry":{"type":"Point","coordinates":[-73.771777,40.76285]},"properties":{"cartodb_id":149,"city":"Bayside","name":"Bayside Station","zip":"11361","url":"http://www.usps.com/","bbl":"4062270322","streetname":"42 AVENUE","housenum":"212-35","bin":"4137461"}},{"type":"Feature","geometry":{"type":"Point","coordinates":[-73.755929,40.748414]},"properties":{"cartodb_id":150,"city":"Oakland Gardens","name":"Oakland Gardens Station","zip":"11364","url":"http://www.usps.com/","bbl":"4076440009","streetname":"SPRINGFIELD BOULEVARD","housenum":"61-43","bin":"4163156"}},{"type":"Feature","geometry":{"type":"Point","coordinates":[-73.737097,40.768417]},"properties":{"cartodb_id":151,"city":"Little Neck","name":"Little Neck Station","zip":"11362","url":"http://www.usps.com/","bbl":"4082260014","streetname":"NORTHERN BOULEVARD","housenum":"250-10","bin":"4170862"}},{"type":"Feature","geometry":{"type":"Point","coordinates":[-73.819589,40.723119]},"properties":{"cartodb_id":152,"city":"Flushing","name":"Station C Station","zip":"11367","url":"http://www.usps.com/","bbl":"4066650001","streetname":"MAIN STREET","housenum":"75-23","bin":"4144214"}},{"type":"Feature","geometry":{"type":"Point","coordinates":[-73.861772,40.749615]},"properties":{"cartodb_id":153,"city":"Corona","name":"Corona-\"A\" Station","zip":"11368","url":"http://www.usps.com/","bbl":"4019750018","streetname":"ROOSEVELT AVENUE","housenum":"103-28","bin":"4048558"}},{"type":"Feature","geometry":{"type":"Point","coordinates":[-73.884582,40.743998]},"properties":{"cartodb_id":154,"city":"Elmhurst","name":"Elmhurst A Station","zip":"11373","url":"http://www.usps.com/","bbl":"4015090001","streetname":"BROADWAY","housenum":"80-27","bin":"4037307"}},{"type":"Feature","geometry":{"type":"Point","coordinates":[-73.868323,40.732203]},"properties":{"cartodb_id":155,"city":"Rego Park","name":"Rego Park Station","zip":"11374","url":"http://www.usps.com/","bbl":"4030750006","streetname":"ELIOT AVENUE","housenum":"89-12","bin":"4071942"}},{"type":"Feature","geometry":{"type":"Point","coordinates":[-73.887427,40.749172]},"properties":{"cartodb_id":156,"city":"Jackson Heights","name":"Jackson Heights Station","zip":"11372","url":"http://www.usps.com/","bbl":"4012890001","streetname":"37 AVENUE","housenum":"78-02","bin":"4029915"}},{"type":"Feature","geometry":{"type":"Point","coordinates":[-73.846971,40.721679]},"properties":{"cartodb_id":157,"city":"Forest Hills","name":"Forest Hills Station","zip":"11375","url":"http://www.usps.com/","bbl":"4032370018","streetname":"QUEENS BOULEVARD","housenum":"106-28","bin":"4077476"}},{"type":"Feature","geometry":{"type":"Point","coordinates":[-74.075367,40.641167]},"properties":{"cartodb_id":158,"city":"Staten Island","name":"St. George Station","zip":"10301","url":"http://www.usps.com/","bbl":"5000010055","streetname":"BAY STREET","housenum":"45","bin":"5000004"}},{"type":"Feature","geometry":{"type":"Point","coordinates":[-74.076892,40.629401]},"properties":{"cartodb_id":159,"city":"Staten Island","name":"Stapleton Station","zip":"10304","url":"http://www.usps.com/","bbl":"5005110003","streetname":"BAY STREET","housenum":"514","bin":"5013424"}},{"type":"Feature","geometry":{"type":"Point","coordinates":[-74.116338,40.634871]},"properties":{"cartodb_id":160,"city":"Staten Island","name":"West New Brighton Station","zip":"10310","url":"http://www.usps.com/","bbl":"5001770075","streetname":"CASTLETON AVENUE","housenum":"1015","bin":"5004894"}},{"type":"Feature","geometry":{"type":"Point","coordinates":[-74.123147,40.614302]},"properties":{"cartodb_id":161,"city":"Staten Island","name":"Gen'L Post Office Station","zip":"10314","url":"http://www.usps.com/","bbl":"5003710001","streetname":"MANOR ROAD","housenum":"550","bin":"5010473"}},{"type":"Feature","geometry":{"type":"Point","coordinates":[-74.137174,40.633086]},"properties":{"cartodb_id":162,"city":"Staten Island","name":"Port Richman Station","zip":"10302","url":"http://www.usps.com/","bbl":"5010910001","streetname":"PORT RICHMOND AVENUE","housenum":"364","bin":"5025688"}},{"type":"Feature","geometry":{"type":"Point","coordinates":[-74.15935,40.636706]},"properties":{"cartodb_id":163,"city":"Staten Island","name":"Marinners Harbor Station","zip":"10303","url":"http://www.usps.com/","bbl":"5012270063","streetname":"RICHMOND TERRACE","housenum":"2980","bin":"5027769"}},{"type":"Feature","geometry":{"type":"Point","coordinates":[-74.110409,40.568351]},"properties":{"cartodb_id":164,"city":"Staten Island","name":"New Dorp Station","zip":"10306","url":"http://www.usps.com/","bbl":"5039600210","streetname":"HYLAN BOULEVARD","housenum":"2562","bin":"5104304"}},{"type":"Feature","geometry":{"type":"Point","coordinates":[-74.162943,40.544623]},"properties":{"cartodb_id":165,"city":"Staten Island","name":"Eltingville Station","zip":"10312","url":"http://www.usps.com/","bbl":"5054970080","streetname":"AMBOY ROAD","housenum":"4455","bin":"5073192"}},{"type":"Feature","geometry":{"type":"Point","coordinates":[-74.247615,40.509502]},"properties":{"cartodb_id":166,"city":"Staten Island","name":"Tottenville Station","zip":"10307","url":"http://www.usps.com/","bbl":"5080480072","streetname":"MAIN STREET","housenum":"228","bin":"5089300"}},{"type":"Feature","geometry":{"type":"Point","coordinates":[-74.206554,40.542861]},"properties":{"cartodb_id":167,"city":"Staten Island","name":"Princes Bay Finance Station","zip":"10309","url":"http://www.usps.com/","bbl":"5061450300","streetname":"ROSSVILLE AVENUE","housenum":"655","bin":"5079747"}},{"type":"Feature","geometry":{"type":"Point","coordinates":[-74.075344,40.640927]},"properties":{"cartodb_id":168,"city":"Staten Island","name":"Ferry Terminal Station","zip":"10301","url":"http://www.usps.com/","bbl":"5000010055","streetname":"BAY STREET","housenum":"45","bin":"5000004"}},{"type":"Feature","geometry":{"type":"Point","coordinates":[-74.003911,40.659906]},"properties":{"cartodb_id":169,"city":"Brooklyn","name":"Bush Term Station","zip":"11232","url":"http://www.usps.com/","bbl":"3006670001","streetname":"3 AVENUE","housenum":"824","bin":"3009828"}},{"type":"Feature","geometry":{"type":"Point","coordinates":[-73.926985,40.771389]},"properties":{"cartodb_id":170,"city":"Astoria","name":"Astoria Station","zip":"11102","url":"http://www.usps.com/","bbl":"4005390041","streetname":"21 STREET","housenum":"27-40","bin":"4006100"}},{"type":"Feature","geometry":{"type":"Point","coordinates":[-73.819872,40.60623]},"properties":{"cartodb_id":171,"city":"Broad Channel","name":"Broad Channel Station","zip":"11693","url":"http://www.usps.com/","bbl":"4153140010","streetname":"CROSS BAY BOULEVARD","housenum":"909","bin":"4315080"}},{"type":"Feature","geometry":{"type":"Point","coordinates":[-73.813692,40.787846]},"properties":{"cartodb_id":172,"city":"Whitestone","name":"White Stone Station","zip":"11357","url":"http://www.usps.com/","bbl":"4046600041","streetname":"150 STREET","housenum":"14-44","bin":"4105619"}},{"type":"Feature","geometry":{"type":"Point","coordinates":[-73.946908,40.628524]},"properties":{"cartodb_id":173,"city":"Brooklyn","name":"Vanderveer Station","zip":"11210","url":"http://www.usps.com/","bbl":"3075940035","streetname":"NOSTRAND AVENUE","housenum":"2319","bin":"3207058"}},{"type":"Feature","geometry":{"type":"Point","coordinates":[-73.929625,40.615589]},"properties":{"cartodb_id":174,"city":"Brooklyn","name":"Ryder Station","zip":"11234","url":"http://www.usps.com/","bbl":"3084860051","streetname":"FLATBUSH AVENUE","housenum":"2222","bin":"3326833"}},{"type":"Feature","geometry":{"type":"Point","coordinates":[-73.97924,40.643883]},"properties":{"cartodb_id":175,"city":"Brooklyn","name":"Kensington Station","zip":"11218","url":"http://www.usps.com/","bbl":"3053340072","streetname":"MCDONALD AVENUE","housenum":"419","bin":"3124536"}},{"type":"Feature","geometry":{"type":"Point","coordinates":[-73.715077,40.745795]},"properties":{"cartodb_id":176,"city":"Glen Oaks","name":"Glen Oaks Station Station","zip":"11004","url":"http://www.usps.com/","bbl":"4085130002","streetname":"UNION TURNPIKE","housenum":"256-29","bin":"4440956"}},{"type":"Feature","geometry":{"type":"Point","coordinates":[-73.801668,40.76133]},"properties":{"cartodb_id":177,"city":"Flushing","name":"Station A","zip":"11358","url":"http://www.usps.com/","bbl":"4053390014","streetname":"164 STREET","housenum":"40-03","bin":"4438193"}},{"type":"Feature","geometry":{"type":"Point","coordinates":[-73.783047,40.741368]},"properties":{"cartodb_id":178,"city":"Fresh Meadows","name":"Fresh Meadows Station","zip":"11365","url":"http://www.usps.com/","bbl":"4071170004","streetname":"HORACE HARDING EXPRESSWAY","housenum":"192-04","bin":"4454381"}},{"type":"Feature","geometry":{"type":"Point","coordinates":[-73.864483,40.735233]},"properties":{"cartodb_id":179,"city":"Elmhurst","name":"Corona-Elmhurst Station","zip":"11373","url":"http://www.usps.com/","bbl":"4019180018","streetname":"JUNCTION BOULEVARD","housenum":"59-01","bin":"4047311"}},{"type":"Feature","geometry":{"type":"Point","coordinates":[-73.892349,40.759472]},"properties":{"cartodb_id":180,"city":"East Elmhurst","name":"Trainsmeadow Station","zip":"11370","url":"http://www.usps.com/","bbl":"4011240001","streetname":"31 AVENUE","housenum":"75-77","bin":"4439602"}},{"type":"Feature","geometry":{"type":"Point","coordinates":[-74.150671,40.54994]},"properties":{"cartodb_id":181,"city":"Staten Island","name":"Great Kills Finance Station","zip":"10308","url":"http://www.usps.com/","bbl":"5051430017","streetname":"NELSON AVENUE","housenum":"1","bin":"5065712"}},{"type":"Feature","geometry":{"type":"Point","coordinates":[-74.168027,40.57589]},"properties":{"cartodb_id":182,"city":"Staten Island","name":"New Springville Station","zip":"10314","url":"http://www.usps.com/","bbl":"5024600098","streetname":"RICHMOND AVENUE","housenum":"2845","bin":"5127009"}},{"type":"Feature","geometry":{"type":"Point","coordinates":[-73.912806,40.775173]},"properties":{"cartodb_id":183,"city":"Astoria","name":"Woolsey Finance Station","zip":"11105","url":"http://www.usps.com/","bbl":"4008440011","streetname":"31 STREET","housenum":"22-66","bin":"0"}},{"type":"Feature","geometry":{"type":"Point","coordinates":[-74.014095,40.707869]},"properties":{"cartodb_id":184,"city":"New York","name":"Battery Park Retail Unit","zip":"10006","url":"http://www.usps.com/","bbl":"1000180027","streetname":"GREENWICH STREET","housenum":"88","bin":"1000794"}},{"type":"Feature","geometry":{"type":"Point","coordinates":[-74.010632,40.71273]},"properties":{"cartodb_id":185,"city":"New York","name":"Church Street Station","zip":"10007","url":"http://www.usps.com/","bbl":"1000860001","streetname":"CHURCH STREET","housenum":"90","bin":"1001230"}},{"type":"Feature","geometry":{"type":"Point","coordinates":[-73.981503,40.721813]},"properties":{"cartodb_id":186,"city":"New York","name":"Tompkins Square","zip":"10009","url":"http://www.usps.com/","bbl":"1003850027","streetname":"EAST 3 STREET","housenum":"244","bin":"1004595"}},{"type":"Feature","geometry":{"type":"Point","coordinates":[-73.981255,40.730292]},"properties":{"cartodb_id":187,"city":"New York","name":"Peter Stuyvesant Station","zip":"10009","url":"http://www.usps.com/","bbl":"1004410023","streetname":"EAST 14 STREET","housenum":"432","bin":"1006018"}},{"type":"Feature","geometry":{"type":"Point","coordinates":[-73.983659,40.739545]},"properties":{"cartodb_id":188,"city":"New York","name":"Madison Square","zip":"10010","url":"http://www.usps.com/","bbl":"1008790030","streetname":"EAST 23 STREET","housenum":"149","bin":"1018045"}},{"type":"Feature","geometry":{"type":"Point","coordinates":[-73.998541,40.734524]},"properties":{"cartodb_id":189,"city":"New York","name":"Patchin","zip":"10011","url":"http://www.usps.com/","bbl":"1005730006","streetname":"WEST 10 STREET","housenum":"70","bin":"1009454"}},{"type":"Feature","geometry":{"type":"Point","coordinates":[-74.003143,40.741328]},"properties":{"cartodb_id":190,"city":"New York","name":"Port Authority","zip":"10011","url":"http://www.usps.com/","bbl":"1007390001","streetname":"9 AVENUE","housenum":"76","bin":"1013043"}},{"type":"Feature","geometry":{"type":"Point","coordinates":[-74.003562,40.74786]},"properties":{"cartodb_id":191,"city":"New York","name":"London Terrace","zip":"10011","url":"http://www.usps.com/","bbl":"1007217501","streetname":"10 AVENUE","housenum":"234","bin":"1067979"}},{"type":"Feature","geometry":{"type":"Point","coordinates":[-73.998882,40.741713]},"properties":{"cartodb_id":192,"city":"New York","name":"Old Chelsea Station","zip":"10011","url":"http://www.usps.com/","bbl":"1007680020","streetname":"WEST 18 STREET","housenum":"217","bin":"1013879"}},{"type":"Feature","geometry":{"type":"Point","coordinates":[-73.998976,40.725119]},"properties":{"cartodb_id":193,"city":"New York","name":"Prince Station","zip":"10012","url":"http://www.usps.com/","bbl":"1005130039","streetname":"GREENE STREET","housenum":"124","bin":"1007985"}},{"type":"Feature","geometry":{"type":"Point","coordinates":[-73.997917,40.714443]},"properties":{"cartodb_id":194,"city":"New York","name":"Chinatown","zip":"10013","url":"http://www.usps.com/","bbl":"1001620044","streetname":"DOYERS STREET","housenum":"6","bin":"1001710"}},{"type":"Feature","geometry":{"type":"Point","coordinates":[-74.004091,40.72047]},"properties":{"cartodb_id":195,"city":"New York","name":"Canal Street Station","zip":"10013","url":"http://www.usps.com/","bbl":"1002110003","streetname":"CANAL STREET","housenum":"350","bin":"1002721"}},{"type":"Feature","geometry":{"type":"Point","coordinates":[-74.006579,40.734132]},"properties":{"cartodb_id":196,"city":"New York","name":"West Village","zip":"10014","url":"http://www.usps.com/","bbl":"1006310042","streetname":"HUDSON STREET","housenum":"527","bin":"1011758"}},{"type":"Feature","geometry":{"type":"Point","coordinates":[-73.830595,40.84351]},"properties":{"cartodb_id":197,"city":"Bronx","name":"Pilgrim","zip":"10461","url":"http://www.usps.com/","bbl":"2053960005","streetname":"CROSBY AVENUE","housenum":"1545","bin":"2074712"}},{"type":"Feature","geometry":{"type":"Point","coordinates":[-73.843099,40.84227]},"properties":{"cartodb_id":198,"city":"Bronx","name":"Westchester","zip":"10461","url":"http://www.usps.com/","bbl":"2040730014","streetname":"PONTON AVENUE","housenum":"2619","bin":"2044089"}},{"type":"Feature","geometry":{"type":"Point","coordinates":[-73.851193,40.831393]},"properties":{"cartodb_id":199,"city":"Bronx","name":"Castle Hill","zip":"10462","url":"http://www.usps.com/","bbl":"2038110041","streetname":"CASTLE HILL AVENUE","housenum":"1163","bin":"2026489"}},{"type":"Feature","geometry":{"type":"Point","coordinates":[-73.867385,40.853436]},"properties":{"cartodb_id":200,"city":"Bronx","name":"Parkway","zip":"10462","url":"http://www.usps.com/","bbl":"2042870018","streetname":"WHITE PLAINS ROAD","housenum":"2100","bin":"2048787"}},{"type":"Feature","geometry":{"type":"Point","coordinates":[-73.865692,40.845507]},"properties":{"cartodb_id":201,"city":"Bronx","name":"Van Nest","zip":"10462","url":"http://www.usps.com/","bbl":"2040500001","streetname":"MORRIS PARK AVENUE","housenum":"715","bin":"2043478"}},{"type":"Feature","geometry":{"type":"Point","coordinates":[-73.862032,40.836746]},"properties":{"cartodb_id":202,"city":"Bronx","name":"Parkchester","zip":"10462","url":"http://www.usps.com/","bbl":"2039377501","streetname":"WEST AVENUE","housenum":"1449","bin":"2096638"}},{"type":"Feature","geometry":{"type":"Point","coordinates":[-73.905138,40.887108]},"properties":{"cartodb_id":203,"city":"Bronx","name":"Fieldston","zip":"10463","url":"http://www.usps.com/","bbl":"2057700078","streetname":"WEST 238 STREET","housenum":"444","bin":"2083968"}},{"type":"Feature","geometry":{"type":"Point","coordinates":[-73.917067,40.878785]},"properties":{"cartodb_id":204,"city":"Bronx","name":"Spuyten Duyvil","zip":"10463","url":"http://www.usps.com/","bbl":"2057230066","streetname":"KAPPOCK STREET","housenum":"562","bin":"2083248"}},{"type":"Feature","geometry":{"type":"Point","coordinates":[-73.906302,40.877379]},"properties":{"cartodb_id":205,"city":"Bronx","name":"Kingsbridge","zip":"10463","url":"http://www.usps.com/","bbl":"2057000099","streetname":"BROADWAY","housenum":"5517","bin":"2083137"}},{"type":"Feature","geometry":{"type":"Point","coordinates":[-73.785483,40.843547]},"properties":{"cartodb_id":206,"city":"Bronx","name":"City Island","zip":"10464","url":"http://www.usps.com/","bbl":"2056260360","streetname":"CITY ISLAND AVENUE","housenum":"199","bin":"2081977"}},{"type":"Feature","geometry":{"type":"Point","coordinates":[-73.824122,40.827947]},"properties":{"cartodb_id":207,"city":"Bronx","name":"Throggs Neck","zip":"10465","url":"http://www.usps.com/","bbl":"2055430039","streetname":"EAST TREMONT AVENUE","housenum":"3630","bin":"2079891"}},{"type":"Feature","geometry":{"type":"Point","coordinates":[-73.85817,40.89265]},"properties":{"cartodb_id":208,"city":"Bronx","name":"Wakefield","zip":"10466","url":"http://www.usps.com/","bbl":"2048340001","streetname":"WHITE PLAINS ROAD","housenum":"4165","bin":"2063254"}},{"type":"Feature","geometry":{"type":"Point","coordinates":[-73.867591,40.867085]},"properties":{"cartodb_id":209,"city":"Bronx","name":"Allerton","zip":"10467","url":"http://www.usps.com/","bbl":"2045080068","streetname":"WHITE PLAINS ROAD","housenum":"2815","bin":"2053548"}},{"type":"Feature","geometry":{"type":"Point","coordinates":[-73.882033,40.881733]},"properties":{"cartodb_id":210,"city":"Bronx","name":"Mosholu","zip":"10467","url":"http://www.usps.com/","bbl":"2033270093","streetname":"JEROME AVENUE","housenum":"3464","bin":"2017771"}},{"type":"Feature","geometry":{"type":"Point","coordinates":[-73.87775,40.871507]},"properties":{"cartodb_id":211,"city":"Bronx","name":"Van Cott","zip":"10467","url":"http://www.usps.com/","bbl":"2033310040","streetname":"DECATUR AVENUE","housenum":"3102","bin":"2017892"}},{"type":"Feature","geometry":{"type":"Point","coordinates":[-73.865396,40.877443]},"properties":{"cartodb_id":212,"city":"Bronx","name":"Williamsbridge","zip":"10467","url":"http://www.usps.com/","bbl":"2046570008","streetname":"EAST GUN HILL ROAD","housenum":"711","bin":"2057675"}},{"type":"Feature","geometry":{"type":"Point","coordinates":[-73.899774,40.864975]},"properties":{"cartodb_id":213,"city":"Bronx","name":"Jerome  Station","zip":"10468","url":"http://www.usps.com/","bbl":"2032010040","streetname":"JEROME AVENUE","housenum":"2549","bin":"2014379"}},{"type":"Feature","geometry":{"type":"Point","coordinates":[-73.8575,40.8626]},"properties":{"cartodb_id":214,"city":"Bronx","name":"Esplanade","zip":"10469","url":"http://www.usps.com/","bbl":"2044490074","streetname":"WILLIAMSBRIDGE ROAD","housenum":"2488","bin":"2051748"}},{"type":"Feature","geometry":{"type":"Point","coordinates":[-73.846914,40.876564]},"properties":{"cartodb_id":215,"city":"Bronx","name":"Hillside","zip":"10469","url":"http://www.usps.com/","bbl":"2047430001","streetname":"BOSTON ROAD","housenum":"3482","bin":"2061043"}},{"type":"Feature","geometry":{"type":"Point","coordinates":[-73.84118,40.868233]},"properties":{"cartodb_id":216,"city":"Bronx","name":"Baychester","zip":"10469","url":"http://www.usps.com/","bbl":"2047830047","streetname":"EAST GUN HILL ROAD","housenum":"1525","bin":"2062376"}},{"type":"Feature","geometry":{"type":"Point","coordinates":[-73.850851,40.903402]},"properties":{"cartodb_id":217,"city":"Bronx","name":"Cranford","zip":"10470","url":"http://www.usps.com/","bbl":"2050830033","streetname":"EAST 241 STREET","housenum":"690","bin":"2071117"}},{"type":"Feature","geometry":{"type":"Point","coordinates":[-73.867478,40.900815]},"properties":{"cartodb_id":218,"city":"Bronx","name":"Woodlawn","zip":"10470","url":"http://www.usps.com/","bbl":"2033880007","streetname":"KATONAH AVENUE","housenum":"4364","bin":"2019523"}},{"type":"Feature","geometry":{"type":"Point","coordinates":[-73.904238,40.907678]},"properties":{"cartodb_id":219,"city":"Bronx","name":"Riverdale","zip":"10471","url":"http://www.usps.com/","bbl":"2059570158","streetname":"RIVERDALE AVENUE","housenum":"5951","bin":"2086340"}},{"type":"Feature","geometry":{"type":"Point","coordinates":[-73.871116,40.829449]},"properties":{"cartodb_id":220,"city":"Bronx","name":"Soundview","zip":"10472","url":"http://www.usps.com/","bbl":"2037480022","streetname":"GLEASON AVENUE","housenum":"1687","bin":"2024084"}},{"type":"Feature","geometry":{"type":"Point","coordinates":[-73.867676,40.822124]},"properties":{"cartodb_id":221,"city":"Bronx","name":"Clason Point","zip":"10473","url":"http://www.usps.com/","bbl":"2036360020","streetname":"SOUNDVIEW AVENUE","housenum":"829","bin":"2022547"}},{"type":"Feature","geometry":{"type":"Point","coordinates":[-73.857461,40.821627]},"properties":{"cartodb_id":222,"city":"Bronx","name":"Cornell","zip":"10473","url":"http://www.usps.com/","bbl":"2036060001","streetname":"LAFAYETTE AVENUE","housenum":"1950","bin":"2022207"}},{"type":"Feature","geometry":{"type":"Point","coordinates":[-73.888813,40.817027]},"properties":{"cartodb_id":223,"city":"Bronx","name":"Hunts Point","zip":"10474","url":"http://www.usps.com/","bbl":"2027400033","streetname":"MANIDA STREET","housenum":"800","bin":"2102159"}},{"type":"Feature","geometry":{"type":"Point","coordinates":[-73.822409,40.864612]},"properties":{"cartodb_id":224,"city":"Bronx","name":"Einstein","zip":"10475","url":"http://www.usps.com/","bbl":"2051350210","streetname":"EINSTEIN LOOP","housenum":"127","bin":"2095160"}},{"type":"Feature","geometry":{"type":"Point","coordinates":[-73.829533,40.878023]},"properties":{"cartodb_id":225,"city":"Bronx","name":"Dreiser Loop","zip":"10475","url":"http://www.usps.com/","bbl":"","streetname":"DREISER LOOP","housenum":"179","bin":"0"}},{"type":"Feature","geometry":{"type":"Point","coordinates":[-73.822222,40.882503]},"properties":{"cartodb_id":226,"city":"Bronx","name":"Co-Op City","zip":"10475","url":"http://www.usps.com/","bbl":"2052550001","streetname":"CONNER STREET","housenum":"3300","bin":"2072448"}},{"type":"Feature","geometry":{"type":"Point","coordinates":[-74.006268,40.728327]},"properties":{"cartodb_id":227,"city":"New York","name":"Village Station","zip":"10014","url":"http://www.usps.com/","bbl":"1005810001","streetname":"VARICK STREET","housenum":"201","bin":"1009755"}},{"type":"Feature","geometry":{"type":"Point","coordinates":[-73.980179,40.746872]},"properties":{"cartodb_id":228,"city":"New York","name":"Murray Hill Finance","zip":"10016","url":"http://www.usps.com/","bbl":"1008900011","streetname":"EAST 34 STREET","housenum":"115","bin":"1018517"}},{"type":"Feature","geometry":{"type":"Point","coordinates":[-73.97086,40.747979]},"properties":{"cartodb_id":229,"city":"New York","name":"Tudor City Station","zip":"10017","url":"http://www.usps.com/","bbl":"1013330023","streetname":"TUDOR CITY PLACE","housenum":"5","bin":"1038647"}},{"type":"Feature","geometry":{"type":"Point","coordinates":[-73.969097,40.748796]},"properties":{"cartodb_id":230,"city":"New York","name":"United Nations Station","zip":"10017","url":"http://www.usps.com/","bbl":"1013540001","streetname":"EAST 42 STREET","housenum":"405","bin":"1083874"}}]}