{"type": "FeatureCollection", "crs": {"type": "name", "properties": {"name": "urn:ogc:def:crs:OGC:1.3:CRS84"}}, "features": [{"type": "Feature", "properties": {"geoid": "BK88", "shape_area": "54005019.048", "county_fips": "047", "ntaname": "Borough Park", "shape_leng": "39247.2278309", "boro_name": "Brooklyn", "boro_code": "3"}, "geometry": {"type": "Point", "coordinates": [-73.98866123064063, 40.630949655424594]}, "id": "BK88"}, {"type": "Feature", "properties": {"geoid": "QN51", "shape_area": "52488277.846", "county_fips": "081", "ntaname": "Murray Hill", "shape_leng": "33266.9047967", "boro_name": "Queens", "boro_code": "4"}, "geometry": {"type": "Point", "coordinates": [-73.80954590118573, 40.768351587973775]}, "id": "QN51"}, {"type": "Feature", "properties": {"geoid": "QN27", "shape_area": "19726845.6282", "county_fips": "081", "ntaname": "East Elmhurst", "shape_leng": "19816.7120736", "boro_name": "Queens", "boro_code": "4"}, "geometry": {"type": "Point", "coordinates": [-73.86839559825498, 40.7633522011835]}, "id": "QN27"}, {"type": "Feature", "properties": {"geoid": "QN07", "shape_area": "22887772.8652", "county_fips": "081", "ntaname": "Hollis", "shape_leng": "20976.3355739", "boro_name": "Queens", "boro_code": "4"}, "geometry": {"type": "Point", "coordinates": [-73.76113705097167, 40.71063933392971]}, "id": "QN07"}, {"type": "Feature", "properties": {"geoid": "MN06", "shape_area": "10647077.5264", "county_fips": "061", "ntaname": "Manhattanville", "shape_leng": "17040.6854129", "boro_name": "Manhattan", "boro_code": "1"}, "geometry": {"type": "Point", "coordinates": [-73.95378199219353, 40.817975566129746]}, "id": "MN06"}, {"type": "Feature", "properties": {"geoid": "BK25", "shape_area": "29991967.2761", "county_fips": "047", "ntaname": "Homecrest", "shape_leng": "27514.0229163", "boro_name": "Brooklyn", "boro_code": "3"}, "geometry": {"type": "Point", "coordinates": [-73.96433366842238, 40.59995428578663]}, "id": "BK25"}, {"type": "Feature", "properties": {"geoid": "BX59", "shape_area": "23945209.7754", "county_fips": "005", "ntaname": "Westchester-Unionport", "shape_leng": "26557.4093256", "boro_name": "Bronx", "boro_code": "2"}, "geometry": {"type": "Point", "coordinates": [-73.84864269174794, 40.83210041016008]}, "id": "BX59"}, {"type": "Feature", "properties": {"geoid": "BX10", "shape_area": "40134533.2664", "county_fips": "005", "ntaname": "Pelham Bay-Country Club-City Island", "shape_leng": "138249.43642", "boro_name": "Bronx", "boro_code": "2"}, "geometry": {"type": "Point", "coordinates": [-73.80653746765533, 40.84656804629167]}, "id": "BX10"}, {"type": "Feature", "properties": {"geoid": "BX52", "shape_area": "88439964.0442", "county_fips": "005", "ntaname": "Schuylerville-Throgs Neck-Edgewater Park", "shape_leng": "91304.7948688", "boro_name": "Bronx", "boro_code": "2"}, "geometry": {"type": "Point", "coordinates": [-73.82358803919627, 40.82333239791404]}, "id": "BX52"}, {"type": "Feature", "properties": {"geoid": "QN41", "shape_area": "27774853.4174", "county_fips": "081", "ntaname": "Fresh Meadows-Utopia", "shape_leng": "22106.4312721", "boro_name": "Queens", "boro_code": "4"}, "geometry": {"type": "Point", "coordinates": [-73.783716361087, 40.73489448635801]}, "id": "QN41"}, {"type": "Feature", "properties": {"geoid": "QN08", "shape_area": "77412748.1103", "county_fips": "081", "ntaname": "St. Albans", "shape_leng": "45401.3169508", "boro_name": "Queens", "boro_code": "4"}, "geometry": {"type": "Point", "coordinates": [-73.7631460748938, 40.691201835077834]}, "id": "QN08"}, {"type": "Feature", "properties": {"geoid": "QN25", "shape_area": "20080371.464", "county_fips": "081", "ntaname": "Corona", "shape_leng": "23870.1540264", "boro_name": "Queens", "boro_code": "4"}, "geometry": {"type": "Point", "coordinates": [-73.85837025521741, 40.74235081661615]}, "id": "QN25"}, {"type": "Feature", "properties": {"geoid": "QN06", "shape_area": "42789975.8462", "county_fips": "081", "ntaname": "Jamaica Estates-Holliswood", "shape_leng": "35465.974926", "boro_name": "Queens", "boro_code": "4"}, "geometry": {"type": "Point", "coordinates": [-73.7761006273737, 40.72065535596201]}, "id": "QN06"}, {"type": "Feature", "properties": {"geoid": "BK44", "shape_area": "27379162.0825", "county_fips": "047", "ntaname": "Madison", "shape_leng": "26237.2578576", "boro_name": "Brooklyn", "boro_code": "3"}, "geometry": {"type": "Point", "coordinates": [-73.948135594689, 40.60491359559634]}, "id": "BK44"}, {"type": "Feature", "properties": {"geoid": "BK41", "shape_area": "15893304.9555", "county_fips": "047", "ntaname": "Kensington-Ocean Parkway", "shape_leng": "20800.7523568", "boro_name": "Brooklyn", "boro_code": "3"}, "geometry": {"type": "Point", "coordinates": [-73.97619902566097, 40.64059014561191]}, "id": "BK41"}, {"type": "Feature", "properties": {"geoid": "BK95", "shape_area": "14522603.5915", "county_fips": "047", "ntaname": "Erasmus", "shape_leng": "18756.7018646", "boro_name": "Brooklyn", "boro_code": "3"}, "geometry": {"type": "Point", "coordinates": [-73.95162338294371, 40.646116419953955]}, "id": "BK95"}, {"type": "Feature", "properties": {"geoid": "BX33", "shape_area": "10732452.1794", "county_fips": "005", "ntaname": "Longwood", "shape_leng": "18982.1296554", "boro_name": "Bronx", "boro_code": "2"}, "geometry": {"type": "Point", "coordinates": [-73.89895677785648, 40.81967506627015]}, "id": "BX33"}, {"type": "Feature", "properties": {"geoid": "BK69", "shape_area": "20528197.1221", "county_fips": "047", "ntaname": "Clinton Hill", "shape_leng": "23971.4659049", "boro_name": "Brooklyn", "boro_code": "3"}, "geometry": {"type": "Point", "coordinates": [-73.96236332340621, 40.68796681278686]}, "id": "BK69"}, {"type": "Feature", "properties": {"geoid": "QN33", "shape_area": "33076797.8229", "county_fips": "081", "ntaname": "Cambria Heights", "shape_leng": "26168.2700876", "boro_name": "Queens", "boro_code": "4"}, "geometry": {"type": "Point", "coordinates": [-73.73555419167727, 40.69434147619397]}, "id": "QN33"}, {"type": "Feature", "properties": {"geoid": "BK43", "shape_area": "35799574.385", "county_fips": "047", "ntaname": "Midwood", "shape_leng": "27996.5906116", "boro_name": "Brooklyn", "boro_code": "3"}, "geometry": {"type": "Point", "coordinates": [-73.95682458081862, 40.62092403922277]}, "id": "BK43"}, {"type": "Feature", "properties": {"geoid": "QN61", "shape_area": "47308036.5451", "county_fips": "081", "ntaname": "Jamaica", "shape_leng": "43696.3647256", "boro_name": "Queens", "boro_code": "4"}, "geometry": {"type": "Point", "coordinates": [-73.7939796681732, 40.704368757669414]}, "id": "QN61"}, {"type": "Feature", "properties": {"geoid": "QN01", "shape_area": "39971928.9432", "county_fips": "081", "ntaname": "South Jamaica", "shape_leng": "32122.5523568", "boro_name": "Queens", "boro_code": "4"}, "geometry": {"type": "Point", "coordinates": [-73.7909638783214, 40.69442746757405]}, "id": "QN01"}, {"type": "Feature", "properties": {"geoid": "BK26", "shape_area": "31341950.2807", "county_fips": "047", "ntaname": "Gravesend", "shape_leng": "39922.6743774", "boro_name": "Brooklyn", "boro_code": "3"}, "geometry": {"type": "Point", "coordinates": [-73.98143050403192, 40.588402818091005]}, "id": "BK26"}, {"type": "Feature", "properties": {"geoid": "BK29", "shape_area": "35777947.5862", "county_fips": "047", "ntaname": "Bensonhurst East", "shape_leng": "33903.2454449", "boro_name": "Brooklyn", "boro_code": "3"}, "geometry": {"type": "Point", "coordinates": [-73.98353751289284, 40.60142922014573]}, "id": "BK29"}, {"type": "Feature", "properties": {"geoid": "BK72", "shape_area": "11589988.1365", "county_fips": "047", "ntaname": "Williamsburg", "shape_leng": "16874.433846", "boro_name": "Brooklyn", "boro_code": "3"}, "geometry": {"type": "Point", "coordinates": [-73.95859674782491, 40.703916526051216]}, "id": "BK72"}, {"type": "Feature", "properties": {"geoid": "BK75", "shape_area": "32629788.9772", "county_fips": "047", "ntaname": "Bedford", "shape_leng": "29992.9237995", "boro_name": "Brooklyn", "boro_code": "3"}, "geometry": {"type": "Point", "coordinates": [-73.9499050210527, 40.6915074977569]}, "id": "BK75"}, {"type": "Feature", "properties": {"geoid": "BK35", "shape_area": "31406935.853", "county_fips": "047", "ntaname": "Stuyvesant Heights", "shape_leng": "28239.0807668", "boro_name": "Brooklyn", "boro_code": "3"}, "geometry": {"type": "Point", "coordinates": [-73.93188820650361, 40.68816824308519]}, "id": "BK35"}, {"type": "Feature", "properties": {"geoid": "BK46", "shape_area": "17782095.7562", "county_fips": "047", "ntaname": "Ocean Parkway South", "shape_leng": "21975.9973189", "boro_name": "Brooklyn", "boro_code": "3"}, "geometry": {"type": "Point", "coordinates": [-73.9703258002288, 40.61731496060257]}, "id": "BK46"}, {"type": "Feature", "properties": {"geoid": "BK79", "shape_area": "20089914.373", "county_fips": "047", "ntaname": "Ocean Hill", "shape_leng": "22494.5820937", "boro_name": "Brooklyn", "boro_code": "3"}, "geometry": {"type": "Point", "coordinates": [-73.91364751024031, 40.67663761692339]}, "id": "BK79"}, {"type": "Feature", "properties": {"geoid": "BK61", "shape_area": "51619074.7032", "county_fips": "047", "ntaname": "Crown Heights North", "shape_leng": "35635.5432526", "boro_name": "Brooklyn", "boro_code": "3"}, "geometry": {"type": "Point", "coordinates": [-73.93928717423755, 40.6744693701672]}, "id": "BK61"}, {"type": "Feature", "properties": {"geoid": "BK63", "shape_area": "15989888.7882", "county_fips": "047", "ntaname": "Crown Heights South", "shape_leng": "24192.4559319", "boro_name": "Brooklyn", "boro_code": "3"}, "geometry": {"type": "Point", "coordinates": [-73.94878399038707, 40.66653879756788]}, "id": "BK63"}, {"type": "Feature", "properties": {"geoid": "BK96", "shape_area": "32706946.2815", "county_fips": "047", "ntaname": "Rugby-Remsen Village", "shape_leng": "30957.8542966", "boro_name": "Brooklyn", "boro_code": "3"}, "geometry": {"type": "Point", "coordinates": [-73.92225097372662, 40.65236480424137]}, "id": "BK96"}, {"type": "Feature", "properties": {"geoid": "BX31", "shape_area": "31693044.3294", "county_fips": "005", "ntaname": "Allerton-Pelham Gardens", "shape_leng": "25467.1174229", "boro_name": "Bronx", "boro_code": "2"}, "geometry": {"type": "Point", "coordinates": [-73.84742514272234, 40.8644722786592]}, "id": "BX31"}, {"type": "Feature", "properties": {"geoid": "BK93", "shape_area": "11598952.3241", "county_fips": "047", "ntaname": "Starrett City", "shape_leng": "17414.782424", "boro_name": "Brooklyn", "boro_code": "3"}, "geometry": {"type": "Point", "coordinates": [-73.88241259885311, 40.64752628418491]}, "id": "BK93"}, {"type": "Feature", "properties": {"geoid": "BK91", "shape_area": "34360864.2711", "county_fips": "047", "ntaname": "East Flatbush-Farragut", "shape_leng": "39201.0382121", "boro_name": "Brooklyn", "boro_code": "3"}, "geometry": {"type": "Point", "coordinates": [-73.9379298370936, 40.64394697079452]}, "id": "BK91"}, {"type": "Feature", "properties": {"geoid": "QN20", "shape_area": "50495176.2946", "county_fips": "081", "ntaname": "Ridgewood", "shape_leng": "40608.5131977", "boro_name": "Queens", "boro_code": "4"}, "geometry": {"type": "Point", "coordinates": [-73.90171541061424, 40.70653136345965]}, "id": "QN20"}, {"type": "Feature", "properties": {"geoid": "BK78", "shape_area": "40169452.3628", "county_fips": "047", "ntaname": "Bushwick South", "shape_leng": "40735.7421787", "boro_name": "Brooklyn", "boro_code": "3"}, "geometry": {"type": "Point", "coordinates": [-73.92511472568977, 40.69645881626702]}, "id": "BK78"}, {"type": "Feature", "properties": {"geoid": "BK77", "shape_area": "24927927.1793", "county_fips": "047", "ntaname": "Bushwick North", "shape_leng": "26321.626916", "boro_name": "Brooklyn", "boro_code": "3"}, "geometry": {"type": "Point", "coordinates": [-73.91776601162027, 40.70056068324128]}, "id": "BK77"}, {"type": "Feature", "properties": {"geoid": "BK68", "shape_area": "16482821.5391", "county_fips": "047", "ntaname": "Fort Greene", "shape_leng": "19825.5208874", "boro_name": "Brooklyn", "boro_code": "3"}, "geometry": {"type": "Point", "coordinates": [-73.97488147953035, 40.69079510512047]}, "id": "BK68"}, {"type": "Feature", "properties": {"geoid": "QN68", "shape_area": "23317032.7566", "county_fips": "081", "ntaname": "Queensbridge-Ravenswood-Long Island City", "shape_leng": "27067.6528667", "boro_name": "Queens", "boro_code": "4"}, "geometry": {"type": "Point", "coordinates": [-73.93874952665054, 40.757561768819436]}, "id": "QN68"}, {"type": "Feature", "properties": {"geoid": "BX08", "shape_area": "15084986.1763", "county_fips": "005", "ntaname": "West Farms-Bronx River", "shape_leng": "17477.2947571", "boro_name": "Bronx", "boro_code": "2"}, "geometry": {"type": "Point", "coordinates": [-73.87228720835968, 40.83416510189158]}, "id": "BX08"}, {"type": "Feature", "properties": {"geoid": "BX46", "shape_area": "9184677.03822", "county_fips": "005", "ntaname": "Parkchester", "shape_leng": "12411.7882095", "boro_name": "Bronx", "boro_code": "2"}, "geometry": {"type": "Point", "coordinates": [-73.85798884699099, 40.83774661949463]}, "id": "BX46"}, {"type": "Feature", "properties": {"geoid": "BX55", "shape_area": "16253358.287", "county_fips": "005", "ntaname": "Soundview-Bruckner", "shape_leng": "19756.559654", "boro_name": "Bronx", "boro_code": "2"}, "geometry": {"type": "Point", "coordinates": [-73.86968191364072, 40.827900155003505]}, "id": "BX55"}, {"type": "Feature", "properties": {"geoid": "BK30", "shape_area": "29911047.2102", "county_fips": "047", "ntaname": "Dyker Heights", "shape_leng": "30596.8453731", "boro_name": "Brooklyn", "boro_code": "3"}, "geometry": {"type": "Point", "coordinates": [-74.01209403612006, 40.62243789091656]}, "id": "BK30"}, {"type": "Feature", "properties": {"geoid": "BK23", "shape_area": "8738769.00294", "county_fips": "047", "ntaname": "West Brighton", "shape_leng": "14113.5813669", "boro_name": "Brooklyn", "boro_code": "3"}, "geometry": {"type": "Point", "coordinates": [-73.97339094978345, 40.579088686299805]}, "id": "BK23"}, {"type": "Feature", "properties": {"geoid": "QN18", "shape_area": "19941713.5046", "county_fips": "081", "ntaname": "Rego Park", "shape_leng": "26675.1087317", "boro_name": "Queens", "boro_code": "4"}, "geometry": {"type": "Point", "coordinates": [-73.86333863821946, 40.72615544108028]}, "id": "QN18"}, {"type": "Feature", "properties": {"geoid": "QN19", "shape_area": "30016735.809", "county_fips": "081", "ntaname": "Glendale", "shape_leng": "41514.4353498", "boro_name": "Queens", "boro_code": "4"}, "geometry": {"type": "Point", "coordinates": [-73.8757482603348, 40.703534970488306]}, "id": "QN19"}, {"type": "Feature", "properties": {"geoid": "BX28", "shape_area": "25666125.0331", "county_fips": "005", "ntaname": "Van Cortlandt Village", "shape_leng": "21945.7199829", "boro_name": "Bronx", "boro_code": "2"}, "geometry": {"type": "Point", "coordinates": [-73.8956220980347, 40.87651338201081]}, "id": "BX28"}, {"type": "Feature", "properties": {"geoid": "QN26", "shape_area": "18000833.5597", "county_fips": "081", "ntaname": "North Corona", "shape_leng": "18431.0531897", "boro_name": "Queens", "boro_code": "4"}, "geometry": {"type": "Point", "coordinates": [-73.86303769056558, 40.75257915736423]}, "id": "QN26"}, {"type": "Feature", "properties": {"geoid": "QN38", "shape_area": "38835956.594", "county_fips": "081", "ntaname": "Pomonok-Flushing Heights-Hillcrest", "shape_leng": "30731.5920332", "boro_name": "Queens", "boro_code": "4"}, "geometry": {"type": "Point", "coordinates": [-73.80244495606365, 40.728333163388996]}, "id": "QN38"}, {"type": "Feature", "properties": {"geoid": "SI99", "shape_area": "24004477.6068", "county_fips": "085", "ntaname": "park-cemetery-etc-Staten Island", "shape_leng": "46209.9336833", "boro_name": "Staten Island", "boro_code": "5"}, "geometry": {"type": "Point", "coordinates": [-74.12635577173607, 40.54658667970627]}, "id": "SI99"}, {"type": "Feature", "properties": {"geoid": "MN15", "shape_area": "18362149.2813", "county_fips": "061", "ntaname": "Clinton", "shape_leng": "34481.6287742", "boro_name": "Manhattan", "boro_code": "1"}, "geometry": {"type": "Point", "coordinates": [-73.99239340693434, 40.764166291194826]}, "id": "MN15"}, {"type": "Feature", "properties": {"geoid": "SI12", "shape_area": "89023935.7428", "county_fips": "085", "ntaname": "Mariner's Harbor-Arlington-Port Ivory-Graniteville", "shape_leng": "70983.8484685", "boro_name": "Staten Island", "boro_code": "5"}, "geometry": {"type": "Point", "coordinates": [-74.16723903831104, 40.63130776835191]}, "id": "SI12"}, {"type": "Feature", "properties": {"geoid": "QN34", "shape_area": "69533432.8235", "county_fips": "081", "ntaname": "Queens Village", "shape_leng": "41782.401111", "boro_name": "Queens", "boro_code": "4"}, "geometry": {"type": "Point", "coordinates": [-73.74153181007678, 40.715454525266615]}, "id": "QN34"}, {"type": "Feature", "properties": {"geoid": "QN43", "shape_area": "55184284.5565", "county_fips": "081", "ntaname": "Bellerose", "shape_leng": "32086.1508909", "boro_name": "Queens", "boro_code": "4"}, "geometry": {"type": "Point", "coordinates": [-73.72665684464174, 40.73548777676948]}, "id": "QN43"}, {"type": "Feature", "properties": {"geoid": "BX41", "shape_area": "14716710.8463", "county_fips": "005", "ntaname": "Mount Hope", "shape_leng": "18937.2481566", "boro_name": "Bronx", "boro_code": "2"}, "geometry": {"type": "Point", "coordinates": [-73.90512194941553, 40.84905813133471]}, "id": "BX41"}, {"type": "Feature", "properties": {"geoid": "QN21", "shape_area": "57684905.4349", "county_fips": "081", "ntaname": "Middle Village", "shape_leng": "42675.5484764", "boro_name": "Queens", "boro_code": "4"}, "geometry": {"type": "Point", "coordinates": [-73.88005347944181, 40.71833784080729]}, "id": "QN21"}, {"type": "Feature", "properties": {"geoid": "QN29", "shape_area": "32675347.5693", "county_fips": "081", "ntaname": "Elmhurst", "shape_leng": "36711.3363025", "boro_name": "Queens", "boro_code": "4"}, "geometry": {"type": "Point", "coordinates": [-73.87711846562296, 40.73949475643662]}, "id": "QN29"}, {"type": "Feature", "properties": {"geoid": "QN66", "shape_area": "39784922.186", "county_fips": "081", "ntaname": "Laurelton", "shape_leng": "29530.9277505", "boro_name": "Queens", "boro_code": "4"}, "geometry": {"type": "Point", "coordinates": [-73.74452396459468, 40.67591713460405]}, "id": "QN66"}, {"type": "Feature", "properties": {"geoid": "BX62", "shape_area": "39738786.3858", "county_fips": "005", "ntaname": "Woodlawn-Wakefield", "shape_leng": "38694.0407086", "boro_name": "Bronx", "boro_code": "2"}, "geometry": {"type": "Point", "coordinates": [-73.85221547857311, 40.897930955592315]}, "id": "BX62"}, {"type": "Feature", "properties": {"geoid": "BX07", "shape_area": "15185447.5286", "county_fips": "005", "ntaname": "Bronxdale", "shape_leng": "17432.1761092", "boro_name": "Bronx", "boro_code": "2"}, "geometry": {"type": "Point", "coordinates": [-73.86490100579502, 40.864004780884336]}, "id": "BX07"}, {"type": "Feature", "properties": {"geoid": "BK85", "shape_area": "19397526.6852", "county_fips": "047", "ntaname": "East New York (Pennsylvania Ave)", "shape_leng": "24226.851288", "boro_name": "Brooklyn", "boro_code": "3"}, "geometry": {"type": "Point", "coordinates": [-73.89536411996939, 40.66655893770652]}, "id": "BK85"}, {"type": "Feature", "properties": {"geoid": "QN55", "shape_area": "82461393.5332", "county_fips": "081", "ntaname": "South Ozone Park", "shape_leng": "36708.1692856", "boro_name": "Queens", "boro_code": "4"}, "geometry": {"type": "Point", "coordinates": [-73.81945921643941, 40.67615527360396]}, "id": "QN55"}, {"type": "Feature", "properties": {"geoid": "BK27", "shape_area": "20534620.814", "county_fips": "047", "ntaname": "Bath Beach", "shape_leng": "22383.7432335", "boro_name": "Brooklyn", "boro_code": "3"}, "geometry": {"type": "Point", "coordinates": [-74.00748726061214, 40.60426981077676]}, "id": "BK27"}, {"type": "Feature", "properties": {"geoid": "BK28", "shape_area": "46670569.5071", "county_fips": "047", "ntaname": "Bensonhurst West", "shape_leng": "37137.4391704", "boro_name": "Brooklyn", "boro_code": "3"}, "geometry": {"type": "Point", "coordinates": [-73.99525918873985, 40.61221904922542]}, "id": "BK28"}, {"type": "Feature", "properties": {"geoid": "SI48", "shape_area": "50410815.8531", "county_fips": "085", "ntaname": "Arden Heights", "shape_leng": "29689.3955318", "boro_name": "Staten Island", "boro_code": "5"}, "geometry": {"type": "Point", "coordinates": [-74.18848303703358, 40.552658792500885]}, "id": "SI48"}, {"type": "Feature", "properties": {"geoid": "QN30", "shape_area": "35633161.0002", "county_fips": "081", "ntaname": "Maspeth", "shape_leng": "41265.6433021", "boro_name": "Queens", "boro_code": "4"}, "geometry": {"type": "Point", "coordinates": [-73.90232988384275, 40.72399513720431]}, "id": "QN30"}, {"type": "Feature", "properties": {"geoid": "BX44", "shape_area": "36273595.3766", "county_fips": "005", "ntaname": "Williamsbridge-Olinville", "shape_leng": "27351.0776676", "boro_name": "Bronx", "boro_code": "2"}, "geometry": {"type": "Point", "coordinates": [-73.85894857876534, 40.882156370912774]}, "id": "BX44"}, {"type": "Feature", "properties": {"geoid": "QN50", "shape_area": "21927665.9348", "county_fips": "081", "ntaname": "Elmhurst-Maspeth", "shape_leng": "32362.8252011", "boro_name": "Queens", "boro_code": "4"}, "geometry": {"type": "Point", "coordinates": [-73.89217320265384, 40.73831640334597]}, "id": "QN50"}, {"type": "Feature", "properties": {"geoid": "QN23", "shape_area": "50553980.6383", "county_fips": "081", "ntaname": "College Point", "shape_leng": "59454.7494972", "boro_name": "Queens", "boro_code": "4"}, "geometry": {"type": "Point", "coordinates": [-73.84280567064296, 40.780923218958335]}, "id": "QN23"}, {"type": "Feature", "properties": {"geoid": "BK73", "shape_area": "28869768.1228", "county_fips": "047", "ntaname": "North Side-South Side", "shape_leng": "28149.9799533", "boro_name": "Brooklyn", "boro_code": "3"}, "geometry": {"type": "Point", "coordinates": [-73.95862548093028, 40.71491649785462]}, "id": "BK73"}, {"type": "Feature", "properties": {"geoid": "QN37", "shape_area": "37888713.6549", "county_fips": "081", "ntaname": "Kew Gardens Hills", "shape_leng": "33105.8552259", "boro_name": "Queens", "boro_code": "4"}, "geometry": {"type": "Point", "coordinates": [-73.8186684034718, 40.72639935001511]}, "id": "QN37"}, {"type": "Feature", "properties": {"geoid": "QN63", "shape_area": "28248218.6687", "county_fips": "081", "ntaname": "Woodside", "shape_leng": "27868.190344", "boro_name": "Queens", "boro_code": "4"}, "geometry": {"type": "Point", "coordinates": [-73.90373106581325, 40.74927858219725]}, "id": "QN63"}, {"type": "Feature", "properties": {"geoid": "BX98", "shape_area": "18163827.5837", "county_fips": "005", "ntaname": "Rikers Island", "shape_leng": "18898.1162858", "boro_name": "Bronx", "boro_code": "2"}, "geometry": {"type": "Point", "coordinates": [-73.88265515402111, 40.79113030193435]}, "id": "BX98"}, {"type": "Feature", "properties": {"geoid": "SI28", "shape_area": "36422143.6377", "county_fips": "085", "ntaname": "Port Richmond", "shape_leng": "39041.5463115", "boro_name": "Staten Island", "boro_code": "5"}, "geometry": {"type": "Point", "coordinates": [-74.14078727649041, 40.62816712978643]}, "id": "SI28"}, {"type": "Feature", "properties": {"geoid": "BK81", "shape_area": "32719365.874", "county_fips": "047", "ntaname": "Brownsville", "shape_leng": "27298.8498762", "boro_name": "Brooklyn", "boro_code": "3"}, "geometry": {"type": "Point", "coordinates": [-73.91025452123064, 40.664001562375674]}, "id": "BK81"}, {"type": "Feature", "properties": {"geoid": "QN54", "shape_area": "50978396.1717", "county_fips": "081", "ntaname": "Richmond Hill", "shape_leng": "33792.4655252", "boro_name": "Queens", "boro_code": "4"}, "geometry": {"type": "Point", "coordinates": [-73.83092640074842, 40.694540694402704]}, "id": "QN54"}, {"type": "Feature", "properties": {"geoid": "QN62", "shape_area": "26561788.1726", "county_fips": "081", "ntaname": "Queensboro Hill", "shape_leng": "30549.0531617", "boro_name": "Queens", "boro_code": "4"}, "geometry": {"type": "Point", "coordinates": [-73.81964765333645, 40.74308172108998]}, "id": "QN62"}, {"type": "Feature", "properties": {"geoid": "MN27", "shape_area": "14501868.1603", "county_fips": "061", "ntaname": "Chinatown", "shape_leng": "20786.2561105", "boro_name": "Manhattan", "boro_code": "1"}, "geometry": {"type": "Point", "coordinates": [-73.9946295403867, 40.71560706024988]}, "id": "MN27"}, {"type": "Feature", "properties": {"geoid": "SI01", "shape_area": "141057788.369", "county_fips": "085", "ntaname": "Annadale-Huguenot-Prince's Bay-Eltingville", "shape_leng": "71174.5829135", "boro_name": "Staten Island", "boro_code": "5"}, "geometry": {"type": "Point", "coordinates": [-74.1876999589549, 40.528667231069555]}, "id": "SI01"}, {"type": "Feature", "properties": {"geoid": "MN25", "shape_area": "19014298.8996", "county_fips": "061", "ntaname": "Battery Park City-Lower Manhattan", "shape_leng": "43738.4962191", "boro_name": "Manhattan", "boro_code": "1"}, "geometry": {"type": "Point", "coordinates": [-74.01024491300547, 40.70800715636235]}, "id": "MN25"}, {"type": "Feature", "properties": {"geoid": "QN17", "shape_area": "57827751.6644", "county_fips": "081", "ntaname": "Forest Hills", "shape_leng": "36171.4782622", "boro_name": "Queens", "boro_code": "4"}, "geometry": {"type": "Point", "coordinates": [-73.84767252343052, 40.72143158549898]}, "id": "QN17"}, {"type": "Feature", "properties": {"geoid": "MN14", "shape_area": "15805586.3147", "county_fips": "061", "ntaname": "Lincoln Square", "shape_leng": "19869.9083199", "boro_name": "Manhattan", "boro_code": "1"}, "geometry": {"type": "Point", "coordinates": [-73.98469929694846, 40.77484656327229]}, "id": "MN14"}, {"type": "Feature", "properties": {"geoid": "MN17", "shape_area": "30191534.3742", "county_fips": "061", "ntaname": "Midtown-Midtown South", "shape_leng": "27032.7002237", "boro_name": "Manhattan", "boro_code": "1"}, "geometry": {"type": "Point", "coordinates": [-73.98350302158111, 40.75573392926876]}, "id": "MN17"}, {"type": "Feature", "properties": {"geoid": "MN40", "shape_area": "20065364.1778", "county_fips": "061", "ntaname": "Upper East Side-Carnegie Hill", "shape_leng": "23778.4105186", "boro_name": "Manhattan", "boro_code": "1"}, "geometry": {"type": "Point", "coordinates": [-73.9611740954994, 40.774729852245265]}, "id": "MN40"}, {"type": "Feature", "properties": {"geoid": "QN53", "shape_area": "37000431.4008", "county_fips": "081", "ntaname": "Woodhaven", "shape_leng": "28067.6644724", "boro_name": "Queens", "boro_code": "4"}, "geometry": {"type": "Point", "coordinates": [-73.855766652564, 40.68872153567113]}, "id": "QN53"}, {"type": "Feature", "properties": {"geoid": "SI54", "shape_area": "89615894.7482", "county_fips": "085", "ntaname": "Great Kills", "shape_leng": "66104.1369972", "boro_name": "Staten Island", "boro_code": "5"}, "geometry": {"type": "Point", "coordinates": [-74.15088880088071, 40.55185996510424]}, "id": "SI54"}, {"type": "Feature", "properties": {"geoid": "BK60", "shape_area": "31638973.1845", "county_fips": "047", "ntaname": "Prospect Lefferts Gardens-Wingate", "shape_leng": "29562.442687", "boro_name": "Brooklyn", "boro_code": "3"}, "geometry": {"type": "Point", "coordinates": [-73.94744160805307, 40.65874427913218]}, "id": "BK60"}, {"type": "Feature", "properties": {"geoid": "BX26", "shape_area": "16457635.5145", "county_fips": "005", "ntaname": "Highbridge", "shape_leng": "18506.3101999", "boro_name": "Bronx", "boro_code": "2"}, "geometry": {"type": "Point", "coordinates": [-73.92615881196744, 40.83782589273449]}, "id": "BX26"}, {"type": "Feature", "properties": {"geoid": "BK21", "shape_area": "38782030.9208", "county_fips": "047", "ntaname": "Seagate-Coney Island", "shape_leng": "51874.9555263", "boro_name": "Brooklyn", "boro_code": "3"}, "geometry": {"type": "Point", "coordinates": [-73.99123577555507, 40.57648264583652]}, "id": "BK21"}, {"type": "Feature", "properties": {"geoid": "BX22", "shape_area": "49048279.0908", "county_fips": "005", "ntaname": "North Riverdale-Fieldston-Riverdale", "shape_leng": "31851.1424632", "boro_name": "Bronx", "boro_code": "2"}, "geometry": {"type": "Point", "coordinates": [-73.90698476040345, 40.8995349681583]}, "id": "BX22"}, {"type": "Feature", "properties": {"geoid": "BX29", "shape_area": "23214112.6798", "county_fips": "005", "ntaname": "Spuyten Duyvil-Kingsbridge", "shape_leng": "27990.7883954", "boro_name": "Bronx", "boro_code": "2"}, "geometry": {"type": "Point", "coordinates": [-73.91066684122268, 40.88240601985333]}, "id": "BX29"}, {"type": "Feature", "properties": {"geoid": "BK40", "shape_area": "14041668.0662", "county_fips": "047", "ntaname": "Windsor Terrace", "shape_leng": "19033.6717332", "boro_name": "Brooklyn", "boro_code": "3"}, "geometry": {"type": "Point", "coordinates": [-73.97798272744632, 40.653611975960615]}, "id": "BK40"}, {"type": "Feature", "properties": {"geoid": "BK64", "shape_area": "10230580.6036", "county_fips": "047", "ntaname": "Prospect Heights", "shape_leng": "15073.7735152", "boro_name": "Brooklyn", "boro_code": "3"}, "geometry": {"type": "Point", "coordinates": [-73.96758759111735, 40.67764478710168]}, "id": "BK64"}, {"type": "Feature", "properties": {"geoid": "BK42", "shape_area": "45254807.5045", "county_fips": "047", "ntaname": "Flatbush", "shape_leng": "38737.8538108", "boro_name": "Brooklyn", "boro_code": "3"}, "geometry": {"type": "Point", "coordinates": [-73.96096847099824, 40.63790037783813]}, "id": "BK42"}, {"type": "Feature", "properties": {"geoid": "BX27", "shape_area": "49729963.2277", "county_fips": "005", "ntaname": "Hunts Point", "shape_leng": "44726.818498", "boro_name": "Bronx", "boro_code": "2"}, "geometry": {"type": "Point", "coordinates": [-73.88553438228652, 40.8120758863793]}, "id": "BX27"}, {"type": "Feature", "properties": {"geoid": "BK50", "shape_area": "82098856.6052", "county_fips": "047", "ntaname": "Canarsie", "shape_leng": "43718.6663539", "boro_name": "Brooklyn", "boro_code": "3"}, "geometry": {"type": "Point", "coordinates": [-73.89975027024308, 40.63804056095458]}, "id": "BK50"}, {"type": "Feature", "properties": {"geoid": "BK58", "shape_area": "54341776.2037", "county_fips": "047", "ntaname": "Flatlands", "shape_leng": "40635.2753424", "boro_name": "Brooklyn", "boro_code": "3"}, "geometry": {"type": "Point", "coordinates": [-73.93009695805883, 40.62627278951659]}, "id": "BK58"}, {"type": "Feature", "properties": {"geoid": "QN44", "shape_area": "45666940.6586", "county_fips": "081", "ntaname": "Glen Oaks-Floral Park-New Hyde Park", "shape_leng": "33596.4731596", "boro_name": "Queens", "boro_code": "4"}, "geometry": {"type": "Point", "coordinates": [-73.71102665623957, 40.74599386466475]}, "id": "QN44"}, {"type": "Feature", "properties": {"geoid": "QN45", "shape_area": "68394169.9309", "county_fips": "081", "ntaname": "Douglas Manor-Douglaston-Little Neck", "shape_leng": "45784.4580918", "boro_name": "Queens", "boro_code": "4"}, "geometry": {"type": "Point", "coordinates": [-73.7370111293402, 40.763846308414955]}, "id": "QN45"}, {"type": "Feature", "properties": {"geoid": "BX06", "shape_area": "13557339.8678", "county_fips": "005", "ntaname": "Belmont", "shape_leng": "17114.2689711", "boro_name": "Bronx", "boro_code": "2"}, "geometry": {"type": "Point", "coordinates": [-73.88586718343528, 40.857779921383724]}, "id": "BX06"}, {"type": "Feature", "properties": {"geoid": "QN35", "shape_area": "29301607.0735", "county_fips": "081", "ntaname": "Briarwood-Jamaica Hills", "shape_leng": "30038.1706802", "boro_name": "Queens", "boro_code": "4"}, "geometry": {"type": "Point", "coordinates": [-73.80867845145809, 40.71159704286027]}, "id": "QN35"}, {"type": "Feature", "properties": {"geoid": "QN60", "shape_area": "20568333.5248", "county_fips": "081", "ntaname": "Kew Gardens", "shape_leng": "21449.7515557", "boro_name": "Queens", "boro_code": "4"}, "geometry": {"type": "Point", "coordinates": [-73.82867314261063, 40.708066887331626]}, "id": "QN60"}, {"type": "Feature", "properties": {"geoid": "BX09", "shape_area": "51983797.5021", "county_fips": "005", "ntaname": "Soundview-Castle Hill-Clason Point-Harding Park", "shape_leng": "67340.979386", "boro_name": "Bronx", "boro_code": "2"}, "geometry": {"type": "Point", "coordinates": [-73.85618761946235, 40.818054588126984]}, "id": "BX09"}, {"type": "Feature", "properties": {"geoid": "QN28", "shape_area": "47856882.6191", "county_fips": "081", "ntaname": "Jackson Heights", "shape_leng": "29422.388736", "boro_name": "Queens", "boro_code": "4"}, "geometry": {"type": "Point", "coordinates": [-73.88532063726012, 40.75731182858546]}, "id": "QN28"}, {"type": "Feature", "properties": {"geoid": "BK37", "shape_area": "42509226.2265", "county_fips": "047", "ntaname": "Park Slope-Gowanus", "shape_leng": "31476.8090877", "boro_name": "Brooklyn", "boro_code": "3"}, "geometry": {"type": "Point", "coordinates": [-73.98390328622082, 40.67122829690715]}, "id": "BK37"}, {"type": "Feature", "properties": {"geoid": "SI11", "shape_area": "145674612.034", "county_fips": "085", "ntaname": "Charleston-Richmond Valley-Tottenville", "shape_leng": "84848.4552104", "boro_name": "Staten Island", "boro_code": "5"}, "geometry": {"type": "Point", "coordinates": [-74.23354397677684, 40.52550834437712]}, "id": "SI11"}, {"type": "Feature", "properties": {"geoid": "SI32", "shape_area": "64963357.8475", "county_fips": "085", "ntaname": "Rossville-Woodrow", "shape_leng": "33247.2589012", "boro_name": "Staten Island", "boro_code": "5"}, "geometry": {"type": "Point", "coordinates": [-74.2078275796523, 40.54033376520888]}, "id": "SI32"}, {"type": "Feature", "properties": {"geoid": "BK83", "shape_area": "27609750.6294", "county_fips": "047", "ntaname": "Cypress Hills-City Line", "shape_leng": "35565.8302527", "boro_name": "Brooklyn", "boro_code": "3"}, "geometry": {"type": "Point", "coordinates": [-73.87833445075351, 40.68217802608887]}, "id": "BK83"}, {"type": "Feature", "properties": {"geoid": "MN03", "shape_area": "25403484.0523", "county_fips": "061", "ntaname": "Central Harlem North-Polo Grounds", "shape_leng": "27983.8841758", "boro_name": "Manhattan", "boro_code": "1"}, "geometry": {"type": "Point", "coordinates": [-73.94077184302688, 40.81825717545322]}, "id": "MN03"}, {"type": "Feature", "properties": {"geoid": "BK82", "shape_area": "117025692.345", "county_fips": "047", "ntaname": "East New York", "shape_leng": "87941.1668179", "boro_name": "Brooklyn", "boro_code": "3"}, "geometry": {"type": "Point", "coordinates": [-73.87683894945633, 40.660947068823475]}, "id": "BK82"}, {"type": "Feature", "properties": {"geoid": "MN32", "shape_area": "13602064.1394", "county_fips": "061", "ntaname": "Yorkville", "shape_leng": "17998.7208473", "boro_name": "Manhattan", "boro_code": "1"}, "geometry": {"type": "Point", "coordinates": [-73.94870291741464, 40.777316491864255]}, "id": "MN32"}, {"type": "Feature", "properties": {"geoid": "QN48", "shape_area": "34164915.0766", "county_fips": "081", "ntaname": "Auburndale", "shape_leng": "32452.059277", "boro_name": "Queens", "boro_code": "4"}, "geometry": {"type": "Point", "coordinates": [-73.78794901987308, 40.75103501258861]}, "id": "QN48"}, {"type": "Feature", "properties": {"geoid": "QN52", "shape_area": "29453683.4814", "county_fips": "081", "ntaname": "East Flushing", "shape_leng": "25848.5454175", "boro_name": "Queens", "boro_code": "4"}, "geometry": {"type": "Point", "coordinates": [-73.80729444048156, 40.75410896946267]}, "id": "QN52"}, {"type": "Feature", "properties": {"geoid": "BX34", "shape_area": "17271780.7454", "county_fips": "005", "ntaname": "Melrose South-Mott Haven North", "shape_leng": "19589.1972813", "boro_name": "Bronx", "boro_code": "2"}, "geometry": {"type": "Point", "coordinates": [-73.91285013178474, 40.81825954269648]}, "id": "BX34"}, {"type": "Feature", "properties": {"geoid": "BX39", "shape_area": "41898533.756", "county_fips": "005", "ntaname": "Mott Haven-Port Morris", "shape_leng": "35603.7332816", "boro_name": "Bronx", "boro_code": "2"}, "geometry": {"type": "Point", "coordinates": [-73.91682097560718, 40.80734699766736]}, "id": "BX39"}, {"type": "Feature", "properties": {"geoid": "MN22", "shape_area": "10894316.1206", "county_fips": "061", "ntaname": "East Village", "shape_leng": "13555.2394514", "boro_name": "Manhattan", "boro_code": "1"}, "geometry": {"type": "Point", "coordinates": [-73.98593457087829, 40.727620351121644]}, "id": "MN22"}, {"type": "Feature", "properties": {"geoid": "MN28", "shape_area": "23297284.6034", "county_fips": "061", "ntaname": "Lower East Side", "shape_leng": "25466.6913743", "boro_name": "Manhattan", "boro_code": "1"}, "geometry": {"type": "Point", "coordinates": [-73.98091166375303, 40.71784092766506]}, "id": "MN28"}, {"type": "Feature", "properties": {"geoid": "BX01", "shape_area": "16451615.8188", "county_fips": "005", "ntaname": "Claremont-Bathgate", "shape_leng": "29972.7771745", "boro_name": "Bronx", "boro_code": "2"}, "geometry": {"type": "Point", "coordinates": [-73.90031589926589, 40.84274918790938]}, "id": "BX01"}, {"type": "Feature", "properties": {"geoid": "BX35", "shape_area": "16891753.6409", "county_fips": "005", "ntaname": "Morrisania-Melrose", "shape_leng": "27740.8461543", "boro_name": "Bronx", "boro_code": "2"}, "geometry": {"type": "Point", "coordinates": [-73.90235187023148, 40.82751244280752]}, "id": "BX35"}, {"type": "Feature", "properties": {"geoid": "BX75", "shape_area": "16319724.9325", "county_fips": "005", "ntaname": "Crotona Park East", "shape_leng": "24813.241466", "boro_name": "Bronx", "boro_code": "2"}, "geometry": {"type": "Point", "coordinates": [-73.88589771815178, 40.83399063120917]}, "id": "BX75"}, {"type": "Feature", "properties": {"geoid": "MN21", "shape_area": "7526926.67975", "county_fips": "061", "ntaname": "Gramercy", "shape_leng": "12096.8955125", "boro_name": "Manhattan", "boro_code": "1"}, "geometry": {"type": "Point", "coordinates": [-73.98405429227047, 40.73682434369728]}, "id": "MN21"}, {"type": "Feature", "properties": {"geoid": "MN01", "shape_area": "17732688.6686", "county_fips": "061", "ntaname": "Marble Hill-Inwood", "shape_leng": "31844.4094218", "boro_name": "Manhattan", "boro_code": "1"}, "geometry": {"type": "Point", "coordinates": [-73.91764940165528, 40.86790997383461]}, "id": "MN01"}, {"type": "Feature", "properties": {"geoid": "MN24", "shape_area": "25032687.72", "county_fips": "061", "ntaname": "SoHo-TriBeCa-Civic Center-Little Italy", "shape_leng": "26855.032328", "boro_name": "Manhattan", "boro_code": "1"}, "geometry": {"type": "Point", "coordinates": [-74.00474749842265, 40.720766120814105]}, "id": "MN24"}, {"type": "Feature", "properties": {"geoid": "MN23", "shape_area": "24970650.174", "county_fips": "061", "ntaname": "West Village", "shape_leng": "28621.6509909", "boro_name": "Manhattan", "boro_code": "1"}, "geometry": {"type": "Point", "coordinates": [-74.00154663731081, 40.73304509544247]}, "id": "MN23"}, {"type": "Feature", "properties": {"geoid": "BK09", "shape_area": "9983620.46912", "county_fips": "047", "ntaname": "Brooklyn Heights-Cobble Hill", "shape_leng": "14264.786528", "boro_name": "Brooklyn", "boro_code": "3"}, "geometry": {"type": "Point", "coordinates": [-73.99487070015212, 40.69546908140553]}, "id": "BK09"}, {"type": "Feature", "properties": {"geoid": "MN13", "shape_area": "37068381.7934", "county_fips": "061", "ntaname": "Hudson Yards-Chelsea-Flatiron-Union Square", "shape_leng": "45693.0745991", "boro_name": "Manhattan", "boro_code": "1"}, "geometry": {"type": "Point", "coordinates": [-73.99902072347464, 40.74758546922383]}, "id": "MN13"}, {"type": "Feature", "properties": {"geoid": "BX40", "shape_area": "6308875.21305", "county_fips": "005", "ntaname": "Fordham South", "shape_leng": "15880.3520703", "boro_name": "Bronx", "boro_code": "2"}, "geometry": {"type": "Point", "coordinates": [-73.89953703383767, 40.85815440174017]}, "id": "BX40"}, {"type": "Feature", "properties": {"geoid": "MN12", "shape_area": "34379942.4967", "county_fips": "061", "ntaname": "Upper West Side", "shape_leng": "29160.2062801", "boro_name": "Manhattan", "boro_code": "1"}, "geometry": {"type": "Point", "coordinates": [-73.97390784022824, 40.79037998139948]}, "id": "MN12"}, {"type": "Feature", "properties": {"geoid": "BX43", "shape_area": "15724928.3207", "county_fips": "005", "ntaname": "Norwood", "shape_leng": "22150.3082205", "boro_name": "Bronx", "boro_code": "2"}, "geometry": {"type": "Point", "coordinates": [-73.87902106926485, 40.87714227906216]}, "id": "BX43"}, {"type": "Feature", "properties": {"geoid": "BX05", "shape_area": "14998883.4758", "county_fips": "005", "ntaname": "Bedford Park-Fordham North", "shape_leng": "22565.481193", "boro_name": "Bronx", "boro_code": "2"}, "geometry": {"type": "Point", "coordinates": [-73.89018363618727, 40.86768209051972]}, "id": "BX05"}, {"type": "Feature", "properties": {"geoid": "BX03", "shape_area": "40256794.2545", "county_fips": "005", "ntaname": "Eastchester-Edenwald-Baychester", "shape_leng": "59164.9993069", "boro_name": "Bronx", "boro_code": "2"}, "geometry": {"type": "Point", "coordinates": [-73.8366432969944, 40.88093526881145]}, "id": "BX03"}, {"type": "Feature", "properties": {"geoid": "BX13", "shape_area": "39833695.0031", "county_fips": "005", "ntaname": "Co-op City", "shape_leng": "30327.1281411", "boro_name": "Bronx", "boro_code": "2"}, "geometry": {"type": "Point", "coordinates": [-73.82827241281367, 40.873964787125004]}, "id": "BX13"}, {"type": "Feature", "properties": {"geoid": "BX17", "shape_area": "19255162.7273", "county_fips": "005", "ntaname": "East Tremont", "shape_leng": "29633.1365327", "boro_name": "Bronx", "boro_code": "2"}, "geometry": {"type": "Point", "coordinates": [-73.88552318934211, 40.84496591015767]}, "id": "BX17"}, {"type": "Feature", "properties": {"geoid": "BK17", "shape_area": "63341499.7731", "county_fips": "047", "ntaname": "Sheepshead Bay-Gerritsen Beach-Manhattan Beach", "shape_leng": "91051.0337308", "boro_name": "Brooklyn", "boro_code": "3"}, "geometry": {"type": "Point", "coordinates": [-73.94151113296199, 40.58829982865537]}, "id": "BK17"}, {"type": "Feature", "properties": {"geoid": "BK19", "shape_area": "17180137.7598", "county_fips": "047", "ntaname": "Brighton Beach", "shape_leng": "21060.1696642", "boro_name": "Brooklyn", "boro_code": "3"}, "geometry": {"type": "Point", "coordinates": [-73.96121598634771, 40.580923007501134]}, "id": "BK19"}, {"type": "Feature", "properties": {"geoid": "QN10", "shape_area": "99436037.0363", "county_fips": "081", "ntaname": "Breezy Point-Belle Harbor-Rockaway Park-Broad Channel", "shape_leng": "114095.11999", "boro_name": "Queens", "boro_code": "4"}, "geometry": {"type": "Point", "coordinates": [-73.87654420405818, 40.57145652087901]}, "id": "QN10"}, {"type": "Feature", "properties": {"geoid": "QN12", "shape_area": "61894959.511", "county_fips": "081", "ntaname": "Hammels-Arverne-Edgemere", "shape_leng": "83804.7314106", "boro_name": "Queens", "boro_code": "4"}, "geometry": {"type": "Point", "coordinates": [-73.78961809998312, 40.59406108141025]}, "id": "QN12"}, {"type": "Feature", "properties": {"geoid": "SI08", "shape_area": "37752553.3783", "county_fips": "085", "ntaname": "Grymes Hill-Clifton-Fox Hills", "shape_leng": "37119.8996244", "boro_name": "Staten Island", "boro_code": "5"}, "geometry": {"type": "Point", "coordinates": [-74.08783927899694, 40.61797304336442]}, "id": "SI08"}, {"type": "Feature", "properties": {"geoid": "QN03", "shape_area": "43288489.6495", "county_fips": "081", "ntaname": "Springfield Gardens South-Brookville", "shape_leng": "45322.1230855", "boro_name": "Queens", "boro_code": "4"}, "geometry": {"type": "Point", "coordinates": [-73.764489826822, 40.662188081618]}, "id": "QN03"}, {"type": "Feature", "properties": {"geoid": "QN05", "shape_area": "61569261.1514", "county_fips": "081", "ntaname": "Rosedale", "shape_leng": "64163.7233951", "boro_name": "Queens", "boro_code": "4"}, "geometry": {"type": "Point", "coordinates": [-73.73945472894617, 40.657841550232455]}, "id": "QN05"}, {"type": "Feature", "properties": {"geoid": "SI37", "shape_area": "46432646.3251", "county_fips": "085", "ntaname": "Stapleton-Rosebank", "shape_leng": "55208.9369737", "boro_name": "Staten Island", "boro_code": "5"}, "geometry": {"type": "Point", "coordinates": [-74.0737041197982, 40.61872736328879]}, "id": "SI37"}, {"type": "Feature", "properties": {"geoid": "SI25", "shape_area": "55961883.7536", "county_fips": "085", "ntaname": "Oakwood-Oakwood Beach", "shape_leng": "44299.0322629", "boro_name": "Staten Island", "boro_code": "5"}, "geometry": {"type": "Point", "coordinates": [-74.12258306461247, 40.561995282927604]}, "id": "SI25"}, {"type": "Feature", "properties": {"geoid": "SI45", "shape_area": "55429451.1208", "county_fips": "085", "ntaname": "New Dorp-Midland Beach", "shape_leng": "34336.5209048", "boro_name": "Staten Island", "boro_code": "5"}, "geometry": {"type": "Point", "coordinates": [-74.10501001155039, 40.57177031335106]}, "id": "SI45"}, {"type": "Feature", "properties": {"geoid": "BK90", "shape_area": "39132793.8204", "county_fips": "047", "ntaname": "East Williamsburg", "shape_leng": "49247.0269687", "boro_name": "Brooklyn", "boro_code": "3"}, "geometry": {"type": "Point", "coordinates": [-73.93679701824735, 40.715368552790466]}, "id": "BK90"}, {"type": "Feature", "properties": {"geoid": "SI14", "shape_area": "40925777.4945", "county_fips": "085", "ntaname": "Grasmere-Arrochar-Ft. Wadsworth", "shape_leng": "39940.2755343", "boro_name": "Staten Island", "boro_code": "5"}, "geometry": {"type": "Point", "coordinates": [-74.07177618517072, 40.600320792445146]}, "id": "SI14"}, {"type": "Feature", "properties": {"geoid": "QN70", "shape_area": "39335513.5876", "county_fips": "081", "ntaname": "Astoria", "shape_leng": "32534.7384018", "boro_name": "Queens", "boro_code": "4"}, "geometry": {"type": "Point", "coordinates": [-73.91969727136524, 40.76149369363128]}, "id": "QN70"}, {"type": "Feature", "properties": {"geoid": "SI36", "shape_area": "67009381.2747", "county_fips": "085", "ntaname": "Old Town-Dongan Hills-South Beach", "shape_leng": "41971.5825515", "boro_name": "Staten Island", "boro_code": "5"}, "geometry": {"type": "Point", "coordinates": [-74.08551252053424, 40.58679178294378]}, "id": "SI36"}, {"type": "Feature", "properties": {"geoid": "QN15", "shape_area": "54160419.8772", "county_fips": "081", "ntaname": "Far Rockaway-Bayswater", "shape_leng": "48684.4167963", "boro_name": "Queens", "boro_code": "4"}, "geometry": {"type": "Point", "coordinates": [-73.75531696788607, 40.60245452855319]}, "id": "QN15"}, {"type": "Feature", "properties": {"geoid": "BK38", "shape_area": "28477918.5654", "county_fips": "047", "ntaname": "DUMBO-Vinegar Hill-Downtown Brooklyn-Boerum Hill", "shape_leng": "32542.899936", "boro_name": "Brooklyn", "boro_code": "3"}, "geometry": {"type": "Point", "coordinates": [-73.98598668779945, 40.69292722915495]}, "id": "BK38"}, {"type": "Feature", "properties": {"geoid": "BK45", "shape_area": "69463730.9832", "county_fips": "047", "ntaname": "Georgetown-Marine Park-Bergen Beach-Mill Basin", "shape_leng": "91993.5647903", "boro_name": "Brooklyn", "boro_code": "3"}, "geometry": {"type": "Point", "coordinates": [-73.91524505344286, 40.614578804845685]}, "id": "BK45"}, {"type": "Feature", "properties": {"geoid": "BK99", "shape_area": "228839409.837", "county_fips": "047", "ntaname": "park-cemetery-etc-Brooklyn", "shape_leng": "394685.418858", "boro_name": "Brooklyn", "boro_code": "3"}, "geometry": {"type": "Point", "coordinates": [-73.9185649244992, 40.62313971577604]}, "id": "BK99"}, {"type": "Feature", "properties": {"geoid": "BX49", "shape_area": "23032576.1419", "county_fips": "005", "ntaname": "Pelham Parkway", "shape_leng": "25823.0368861", "boro_name": "Bronx", "boro_code": "2"}, "geometry": {"type": "Point", "coordinates": [-73.85439542175392, 40.85440459656996]}, "id": "BX49"}, {"type": "Feature", "properties": {"geoid": "BX99", "shape_area": "220841105.286", "county_fips": "005", "ntaname": "park-cemetery-etc-Bronx", "shape_leng": "223443.676824", "boro_name": "Bronx", "boro_code": "2"}, "geometry": {"type": "Point", "coordinates": [-73.8481182059966, 40.872459924492546]}, "id": "BX99"}, {"type": "Feature", "properties": {"geoid": "MN50", "shape_area": "5582283.01555", "county_fips": "061", "ntaname": "Stuyvesant Town-Cooper Village", "shape_leng": "12021.7903016", "boro_name": "Manhattan", "boro_code": "1"}, "geometry": {"type": "Point", "coordinates": [-73.97656328803437, 40.731811389453085]}, "id": "MN50"}, {"type": "Feature", "properties": {"geoid": "BX37", "shape_area": "36302379.2565", "county_fips": "005", "ntaname": "Van Nest-Morris Park-Westchester Square", "shape_leng": "42870.3928034", "boro_name": "Bronx", "boro_code": "2"}, "geometry": {"type": "Point", "coordinates": [-73.85066803669524, 40.84678319640485]}, "id": "BX37"}, {"type": "Feature", "properties": {"geoid": "BK33", "shape_area": "44601379.2315", "county_fips": "047", "ntaname": "Carroll Gardens-Columbia Street-Red Hook", "shape_leng": "60820.884163", "boro_name": "Brooklyn", "boro_code": "3"}, "geometry": {"type": "Point", "coordinates": [-74.0038994763099, 40.67877155741089]}, "id": "BK33"}, {"type": "Feature", "properties": {"geoid": "BK76", "shape_area": "35321995.7927", "county_fips": "047", "ntaname": "Greenpoint", "shape_leng": "28914.3549129", "boro_name": "Brooklyn", "boro_code": "3"}, "geometry": {"type": "Point", "coordinates": [-73.94951695163073, 40.7294997008493]}, "id": "BK76"}, {"type": "Feature", "properties": {"geoid": "MN20", "shape_area": "14485874.7728", "county_fips": "061", "ntaname": "Murray Hill-Kips Bay", "shape_leng": "24491.3105701", "boro_name": "Manhattan", "boro_code": "1"}, "geometry": {"type": "Point", "coordinates": [-73.9774825477068, 40.74419496040452]}, "id": "MN20"}, {"type": "Feature", "properties": {"geoid": "MN04", "shape_area": "16096135.9589", "county_fips": "061", "ntaname": "Hamilton Heights", "shape_leng": "17411.3817116", "boro_name": "Manhattan", "boro_code": "1"}, "geometry": {"type": "Point", "coordinates": [-73.9485216246095, 40.827013716385245]}, "id": "MN04"}, {"type": "Feature", "properties": {"geoid": "QN46", "shape_area": "80798589.9493", "county_fips": "081", "ntaname": "Bayside-Bayside Hills", "shape_leng": "43020.7879368", "boro_name": "Queens", "boro_code": "4"}, "geometry": {"type": "Point", "coordinates": [-73.77342167575752, 40.7627386520253]}, "id": "QN46"}, {"type": "Feature", "properties": {"geoid": "BX14", "shape_area": "18222401.6418", "county_fips": "005", "ntaname": "East Concourse-Concourse Village", "shape_leng": "27223.8471825", "boro_name": "Bronx", "boro_code": "2"}, "geometry": {"type": "Point", "coordinates": [-73.91578817036572, 40.83051162627989]}, "id": "BX14"}, {"type": "Feature", "properties": {"geoid": "BX63", "shape_area": "19379817.3597", "county_fips": "005", "ntaname": "West Concourse", "shape_leng": "28499.0446439", "boro_name": "Bronx", "boro_code": "2"}, "geometry": {"type": "Point", "coordinates": [-73.9244045990866, 40.82899264004869]}, "id": "BX63"}, {"type": "Feature", "properties": {"geoid": "MN36", "shape_area": "23092823.9817", "county_fips": "061", "ntaname": "Washington Heights South", "shape_leng": "22106.4236458", "boro_name": "Manhattan", "boro_code": "1"}, "geometry": {"type": "Point", "coordinates": [-73.94139841606759, 40.84170761713294]}, "id": "MN36"}, {"type": "Feature", "properties": {"geoid": "MN35", "shape_area": "22667347.4075", "county_fips": "061", "ntaname": "Washington Heights North", "shape_leng": "26683.663268", "boro_name": "Manhattan", "boro_code": "1"}, "geometry": {"type": "Point", "coordinates": [-73.93283336084576, 40.85710626636677]}, "id": "MN35"}, {"type": "Feature", "properties": {"geoid": "MN09", "shape_area": "20155865.4461", "county_fips": "061", "ntaname": "Morningside Heights", "shape_leng": "20746.0584556", "boro_name": "Manhattan", "boro_code": "1"}, "geometry": {"type": "Point", "coordinates": [-73.96254365258447, 40.80788624331387]}, "id": "MN09"}, {"type": "Feature", "properties": {"geoid": "MN33", "shape_area": "16650687.5711", "county_fips": "061", "ntaname": "East Harlem South", "shape_leng": "18624.6648078", "boro_name": "Manhattan", "boro_code": "1"}, "geometry": {"type": "Point", "coordinates": [-73.94575085879842, 40.79001128728549]}, "id": "MN33"}, {"type": "Feature", "properties": {"geoid": "MN19", "shape_area": "17389163.8259", "county_fips": "061", "ntaname": "Turtle Bay-East Midtown", "shape_leng": "21124.0541871", "boro_name": "Manhattan", "boro_code": "1"}, "geometry": {"type": "Point", "coordinates": [-73.96901894431714, 40.75431377520229]}, "id": "MN19"}, {"type": "Feature", "properties": {"geoid": "QN31", "shape_area": "102421815.209", "county_fips": "081", "ntaname": "Hunters Point-Sunnyside-West Maspeth", "shape_leng": "74592.1426116", "boro_name": "Queens", "boro_code": "4"}, "geometry": {"type": "Point", "coordinates": [-73.9312121241456, 40.7397725116734]}, "id": "QN31"}, {"type": "Feature", "properties": {"geoid": "SI07", "shape_area": "63253932.165", "county_fips": "085", "ntaname": "Westerleigh", "shape_leng": "41658.0970785", "boro_name": "Staten Island", "boro_code": "5"}, "geometry": {"type": "Point", "coordinates": [-74.12535276470064, 40.61688415470329]}, "id": "SI07"}, {"type": "Feature", "properties": {"geoid": "QN98", "shape_area": "228199205.622", "county_fips": "081", "ntaname": "Airport", "shape_leng": "136232.037479", "boro_name": "Queens", "boro_code": "4"}, "geometry": {"type": "Point", "coordinates": [-73.79862505242107, 40.66461966443625]}, "id": "QN98"}, {"type": "Feature", "properties": {"geoid": "MN31", "shape_area": "21508615.7643", "county_fips": "061", "ntaname": "Lenox Hill-Roosevelt Island", "shape_leng": "39424.2257068", "boro_name": "Manhattan", "boro_code": "1"}, "geometry": {"type": "Point", "coordinates": [-73.95508804915922, 40.76496428303028]}, "id": "MN31"}, {"type": "Feature", "properties": {"geoid": "QN71", "shape_area": "15619597.0682", "county_fips": "081", "ntaname": "Old Astoria", "shape_leng": "19366.2170192", "boro_name": "Queens", "boro_code": "4"}, "geometry": {"type": "Point", "coordinates": [-73.92833321137692, 40.771570159488626]}, "id": "QN71"}, {"type": "Feature", "properties": {"geoid": "MN99", "shape_area": "91543352.4533", "county_fips": "061", "ntaname": "park-cemetery-etc-Manhattan", "shape_leng": "155354.846681", "boro_name": "Manhattan", "boro_code": "1"}, "geometry": {"type": "Point", "coordinates": [-73.95478341145873, 40.78797632531836]}, "id": "MN99"}, {"type": "Feature", "properties": {"geoid": "QN72", "shape_area": "57724460.8646", "county_fips": "081", "ntaname": "Steinway", "shape_leng": "43563.1489927", "boro_name": "Queens", "boro_code": "4"}, "geometry": {"type": "Point", "coordinates": [-73.90540613732843, 40.777417223116856]}, "id": "QN72"}, {"type": "Feature", "properties": {"geoid": "QN47", "shape_area": "46292591.442", "county_fips": "081", "ntaname": "Ft. Totten-Bay Terrace-Clearview", "shape_leng": "39625.8426939", "boro_name": "Queens", "boro_code": "4"}, "geometry": {"type": "Point", "coordinates": [-73.78597343814664, 40.78333313873629]}, "id": "QN47"}, {"type": "Feature", "properties": {"geoid": "SI05", "shape_area": "327768572.857", "county_fips": "085", "ntaname": "New Springville-Bloomfield-Travis", "shape_leng": "109207.918417", "boro_name": "Staten Island", "boro_code": "5"}, "geometry": {"type": "Point", "coordinates": [-74.1763904763458, 40.595927930643924]}, "id": "SI05"}, {"type": "Feature", "properties": {"geoid": "SI24", "shape_area": "184881509.085", "county_fips": "085", "ntaname": "Todt Hill-Emerson Hill-Heartland Village-Lighthouse Hill", "shape_leng": "75942.0025573", "boro_name": "Staten Island", "boro_code": "5"}, "geometry": {"type": "Point", "coordinates": [-74.1329740309537, 40.58655962024211]}, "id": "SI24"}, {"type": "Feature", "properties": {"geoid": "MN11", "shape_area": "14439304.6396", "county_fips": "061", "ntaname": "Central Harlem South", "shape_leng": "16621.0233368", "boro_name": "Manhattan", "boro_code": "1"}, "geometry": {"type": "Point", "coordinates": [-73.95129332010893, 40.804332483651756]}, "id": "MN11"}, {"type": "Feature", "properties": {"geoid": "MN34", "shape_area": "24494898.4181", "county_fips": "061", "ntaname": "East Harlem North", "shape_leng": "30603.7188842", "boro_name": "Manhattan", "boro_code": "1"}, "geometry": {"type": "Point", "coordinates": [-73.93734577133993, 40.80116841319767]}, "id": "MN34"}, {"type": "Feature", "properties": {"geoid": "BK34", "shape_area": "27110066.4579", "county_fips": "047", "ntaname": "Sunset Park East", "shape_leng": "25901.8257638", "boro_name": "Brooklyn", "boro_code": "3"}, "geometry": {"type": "Point", "coordinates": [-74.00464613109364, 40.6418891943235]}, "id": "BK34"}, {"type": "Feature", "properties": {"geoid": "QN22", "shape_area": "37865073.0677", "county_fips": "081", "ntaname": "Flushing", "shape_leng": "38362.7281454", "boro_name": "Queens", "boro_code": "4"}, "geometry": {"type": "Point", "coordinates": [-73.82886550549445, 40.76109326559338]}, "id": "QN22"}, {"type": "Feature", "properties": {"geoid": "QN49", "shape_area": "69050705.9085", "county_fips": "081", "ntaname": "Whitestone", "shape_leng": "62139.0472123", "boro_name": "Queens", "boro_code": "4"}, "geometry": {"type": "Point", "coordinates": [-73.8156432013069, 40.788191276361985]}, "id": "QN49"}, {"type": "Feature", "properties": {"geoid": "QN02", "shape_area": "28432652.7391", "county_fips": "081", "ntaname": "Springfield Gardens North", "shape_leng": "25437.0618659", "boro_name": "Queens", "boro_code": "4"}, "geometry": {"type": "Point", "coordinates": [-73.77303635579048, 40.67209027346555]}, "id": "QN02"}, {"type": "Feature", "properties": {"geoid": "QN76", "shape_area": "44038576.4431", "county_fips": "081", "ntaname": "Baisley Park", "shape_leng": "31478.4381297", "boro_name": "Queens", "boro_code": "4"}, "geometry": {"type": "Point", "coordinates": [-73.79098717932396, 40.678953589565445]}, "id": "QN76"}, {"type": "Feature", "properties": {"geoid": "QN42", "shape_area": "51009679.3418", "county_fips": "081", "ntaname": "Oakland Gardens", "shape_leng": "42410.067721", "boro_name": "Queens", "boro_code": "4"}, "geometry": {"type": "Point", "coordinates": [-73.75461549916368, 40.742675812318176]}, "id": "QN42"}, {"type": "Feature", "properties": {"geoid": "QN99", "shape_area": "311688895.037", "county_fips": "081", "ntaname": "park-cemetery-etc-Queens", "shape_leng": "490742.022293", "boro_name": "Queens", "boro_code": "4"}, "geometry": {"type": "Point", "coordinates": [-73.83148641227382, 40.68959441087562]}, "id": "QN99"}, {"type": "Feature", "properties": {"geoid": "BX30", "shape_area": "13163119.0745", "county_fips": "005", "ntaname": "Kingsbridge Heights", "shape_leng": "21108.8106723", "boro_name": "Bronx", "boro_code": "2"}, "geometry": {"type": "Point", "coordinates": [-73.9059110849621, 40.86526567546758]}, "id": "BX30"}, {"type": "Feature", "properties": {"geoid": "BK31", "shape_area": "67181046.7913", "county_fips": "047", "ntaname": "Bay Ridge", "shape_leng": "44375.5667672", "boro_name": "Brooklyn", "boro_code": "3"}, "geometry": {"type": "Point", "coordinates": [-74.02988291202676, 40.62484720102108]}, "id": "BK31"}, {"type": "Feature", "properties": {"geoid": "BK32", "shape_area": "49990015.9756", "county_fips": "047", "ntaname": "Sunset Park West", "shape_leng": "83323.5060671", "boro_name": "Brooklyn", "boro_code": "3"}, "geometry": {"type": "Point", "coordinates": [-74.011249983967, 40.65237338151868]}, "id": "BK32"}, {"type": "Feature", "properties": {"geoid": "QN56", "shape_area": "25016839.186", "county_fips": "081", "ntaname": "Ozone Park", "shape_leng": "24731.6990843", "boro_name": "Queens", "boro_code": "4"}, "geometry": {"type": "Point", "coordinates": [-73.84704878929128, 40.67559943632766]}, "id": "QN56"}, {"type": "Feature", "properties": {"geoid": "QN57", "shape_area": "64558946.5305", "county_fips": "081", "ntaname": "Lindenwood-Howard Beach", "shape_leng": "79085.800116", "boro_name": "Queens", "boro_code": "4"}, "geometry": {"type": "Point", "coordinates": [-73.84488486692216, 40.65816982431916]}, "id": "QN57"}, {"type": "Feature", "properties": {"geoid": "BX36", "shape_area": "21255485.4646", "county_fips": "005", "ntaname": "University Heights-Morris Heights", "shape_leng": "24100.4320396", "boro_name": "Bronx", "boro_code": "2"}, "geometry": {"type": "Point", "coordinates": [-73.91597420561226, 40.85252203476048]}, "id": "BX36"}, {"type": "Feature", "properties": {"geoid": "SI35", "shape_area": "47137243.9734", "county_fips": "085", "ntaname": "New Brighton-Silver Lake", "shape_leng": "30320.3749733", "boro_name": "Staten Island", "boro_code": "5"}, "geometry": {"type": "Point", "coordinates": [-74.10286117046871, 40.630050062507806]}, "id": "SI35"}, {"type": "Feature", "properties": {"geoid": "SI22", "shape_area": "56030445.1294", "county_fips": "085", "ntaname": "West New Brighton-New Brighton-St. George", "shape_leng": "66054.2514844", "boro_name": "Staten Island", "boro_code": "5"}, "geometry": {"type": "Point", "coordinates": [-74.10231069682459, 40.63897067416818]}, "id": "SI22"}]}