{
"type": "FeatureCollection",
"features": [
{ "type": "Feature", "properties": { "name": "Ida G. Israel Community Health Center", "poi_type": "Hospitals and Health Clinics", "address": "2201,Neptune Ave,Brooklyn,NY,11224", "census_tract_id": 36047034800, "community_district_id": "313", "city_council_district_id": "47", "school_district_id": "21", "ntaid": "BK21" }, "geometry": { "type": "Point", "coordinates": [ -73.989614, 40.578468 ] } },
{ "type": "Feature", "properties": { "name": "FBNYC: FBNYC Food Pantry Soup Kitchen List 8-5-16", "poi_type": "Food Kitches and Pantries", "address": "2769 Stillwell Avenue,Brooklyn,11224.0", "census_tract_id": 36047034800, "community_district_id": "313", "city_council_district_id": "47", "school_district_id": "21", "ntaid": "BK21" }, "geometry": { "type": "Point", "coordinates": [ -73.981723567275097, 40.579996768820976 ] } },
{ "type": "Feature", "properties": { "name": "Abundant Life Tabernacle", "poi_type": "Faith Based Organizations", "address": "2114 Mermaid Ave,Brooklyn,NY,11224", "census_tract_id": 36047032600, "community_district_id": "313", "city_council_district_id": "47", "school_district_id": "21", "ntaid": "BK21" }, "geometry": { "type": "Point", "coordinates": [ -73.988706, 40.577372 ] } },
{ "type": "Feature", "properties": { "name": "FBNYC: FBNYC Food Pantry Soup Kitchen List 8-5-16;NYCDCAS: City Owned and Leased Properties", "poi_type": "Food Kitches and Pantries", "address": "2866 West   17 Street,Brooklyn,11224.0", "census_tract_id": 36047032600, "community_district_id": "313", "city_council_district_id": "47", "school_district_id": "21", "ntaid": "BK21" }, "geometry": { "type": "Point", "coordinates": [ -73.98510556636009, 40.577220769484981 ] } },
{ "type": "Feature", "properties": { "name": "FBNYC: FBNYC Food Pantry Soup Kitchen List 8-5-16", "poi_type": "Food Kitches and Pantries", "address": "2114 Mermaid Avenue,Brooklyn,11224.0", "census_tract_id": 36047032600, "community_district_id": "313", "city_council_district_id": "47", "school_district_id": "21", "ntaid": "BK21" }, "geometry": { "type": "Point", "coordinates": [ -73.988414565373276, 40.576028769834998 ] } },
{ "type": "Feature", "properties": { "name": "FBNYC: FBNYC Food Pantry Soup Kitchen List 8-5-16", "poi_type": "Food Kitches and Pantries", "address": "2114 Mermaid Avenue,Brooklyn,11224.0", "census_tract_id": 36047032600, "community_district_id": "313", "city_council_district_id": "47", "school_district_id": "21", "ntaid": "BK21" }, "geometry": { "type": "Point", "coordinates": [ -73.988414565373276, 40.576028769834998 ] } },
{ "type": "Feature", "properties": { "name": "NYCDCAS: City Owned and Leased Properties;NYCDOE: LCGMS - DOE School Information Report", "poi_type": "Public K12", "address": "2865 West   19 Street,Brooklyn,11224.0", "census_tract_id": 36047032600, "community_district_id": "313", "city_council_district_id": "47", "school_district_id": "21", "ntaid": "BK21" }, "geometry": { "type": "Point", "coordinates": [ -73.985674566183278, 40.577134769521791 ] } },
{ "type": "Feature", "properties": { "name": "New York City Housing Authority", "poi_type": "Community centers and schools", "address": "2964 West   23 Street,Brooklyn,11224.0", "census_tract_id": 36047032600, "community_district_id": "313", "city_council_district_id": "47", "school_district_id": "21", "ntaid": "BK21" }, "geometry": { "type": "Point", "coordinates": [ -73.990296564877255, 40.574265770247465 ] } },
{ "type": "Feature", "properties": { "name": "New York City Housing Authority", "poi_type": "Community centers and schools", "address": "2315 Surf Avenue,Brooklyn,11224.0", "census_tract_id": 36047032600, "community_district_id": "313", "city_council_district_id": "47", "school_district_id": "21", "ntaid": "BK21" }, "geometry": { "type": "Point", "coordinates": [ -73.990296564877255, 40.574265770247465 ] } },
{ "type": "Feature", "properties": { "name": "ACTS Community Development Corporation", "poi_type": "Community Based Organizations", "address": "2114 Mermaid Ave,Brooklyn,11224", "census_tract_id": 36047032600, "community_district_id": "313", "city_council_district_id": "47", "school_district_id": "21", "ntaid": "BK21" }, "geometry": { "type": "Point", "coordinates": [ -73.988706, 40.577372 ] } },
{ "type": "Feature", "properties": { "name": "Ascension Outreach, Inc.", "poi_type": "Community Based Organizations", "address": "2010 Fulton Street,Brooklyn,11224", "census_tract_id": 36047032600, "community_district_id": "313", "city_council_district_id": "47", "school_district_id": "21", "ntaid": "BK21" }, "geometry": { "type": "Point", "coordinates": [ -73.988706, 40.577372 ] } },
{ "type": "Feature", "properties": { "name": "NYCDCAS: City Owned and Leased Properties;NYCOMB: District Resource Statement", "poi_type": "Libraries", "address": "1901 Mermaid Avenue,Brooklyn,11224.0", "census_tract_id": 36047032600, "community_district_id": "313", "city_council_district_id": "47", "school_district_id": "21", "ntaid": "BK21" }, "geometry": { "type": "Point", "coordinates": [ -73.986093566072199, 40.576752769611531 ] } },
{ "type": "Feature", "properties": { "name": "NYCDCAS: City Owned and Leased Properties;NYCOMB: District Resource Statement", "poi_type": "Libraries", "address": "1901 Mermaid Avenue,Brooklyn,11224.0", "census_tract_id": 36047032600, "community_district_id": "313", "city_council_district_id": "47", "school_district_id": "21", "ntaid": "BK21" }, "geometry": { "type": "Point", "coordinates": [ -73.986093566072199, 40.576752769611531 ] } },
{ "type": "Feature", "properties": { "name": "FBNYC: FBNYC Food Pantry Soup Kitchen List 8-5-16", "poi_type": "Food Kitches and Pantries", "address": "3024 West   24 Street,Brooklyn,11224.0", "census_tract_id": 36047035200, "community_district_id": "313", "city_council_district_id": "47", "school_district_id": "21", "ntaid": "BK21" }, "geometry": { "type": "Point", "coordinates": [ -73.990894564757014, 40.573083770500823 ] } },
{ "type": "Feature", "properties": { "name": "NYCDFTA: DFTA Contracts", "poi_type": "Senior Centers", "address": "3024 West   24 Street,Brooklyn,11224.0", "census_tract_id": 36047035200, "community_district_id": "313", "city_council_district_id": "47", "school_district_id": "21", "ntaid": "BK21" }, "geometry": { "type": "Point", "coordinates": [ -73.990894564757014, 40.573083770500823 ] } },
{ "type": "Feature", "properties": { "name": "New York City Housing Authority", "poi_type": "Community centers and schools", "address": "3024 West   24 Street,Brooklyn,11224.0", "census_tract_id": 36047035200, "community_district_id": "313", "city_council_district_id": "47", "school_district_id": "21", "ntaid": "BK21" }, "geometry": { "type": "Point", "coordinates": [ -73.990894564757014, 40.573083770500823 ] } },
{ "type": "Feature", "properties": { "name": "NYPCC Surf Manor Home for", "poi_type": "Mental Health Orgs", "address": "2316 Surf Avenue,Brooklyn,11224", "census_tract_id": 36047035200, "community_district_id": "313", "city_council_district_id": "47", "school_district_id": "21", "ntaid": "BK21" }, "geometry": { "type": "Point", "coordinates": [ -73.9901014, 40.573525 ] } },
{ "type": "Feature", "properties": { "name": "NY Psychotherapy Counseling Sanford", "poi_type": "Mental Health Orgs", "address": "2316 Surf Avenue,Brooklyn,11224", "census_tract_id": 36047035200, "community_district_id": "313", "city_council_district_id": "47", "school_district_id": "21", "ntaid": "BK21" }, "geometry": { "type": "Point", "coordinates": [ -73.990102, 40.573521 ] } },
{ "type": "Feature", "properties": { "name": "NYCDFTA: DFTA Contracts", "poi_type": "Senior Centers", "address": "3601 Surf Avenue,Brooklyn,11224.0", "census_tract_id": 36047034200, "community_district_id": "313", "city_council_district_id": "47", "school_district_id": "21", "ntaid": "BK21" }, "geometry": { "type": "Point", "coordinates": [ -74.002052561155651, 40.573624770784392 ] } },
{ "type": "Feature", "properties": { "name": "NYCDCAS: City Owned and Leased Properties;NYCDOE: Universal Pre-K (UPK) School Locations", "poi_type": "Universal Pre K", "address": "2929 West   30 Street,Brooklyn,11224.0", "census_tract_id": 36047034200, "community_district_id": "313", "city_council_district_id": "47", "school_district_id": "21", "ntaid": "BK21" }, "geometry": { "type": "Point", "coordinates": [ -73.995798563083184, 40.574835770327631 ] } },
{ "type": "Feature", "properties": { "name": "NYCDCAS: City Owned and Leased Properties;NYCDOE: Universal Pre-K (UPK) School Locations", "poi_type": "Universal Pre K", "address": "2950 West   25 Street,Brooklyn,11224.0", "census_tract_id": 36047034200, "community_district_id": "313", "city_council_district_id": "47", "school_district_id": "21", "ntaid": "BK21" }, "geometry": { "type": "Point", "coordinates": [ -73.992438564193208, 40.57424777032584 ] } },
{ "type": "Feature", "properties": { "name": "NYCDCAS: City Owned and Leased Properties;NYCDOE: Universal Pre-K (UPK) School Locations", "poi_type": "Universal Pre K", "address": "2960 West   27 Street,Brooklyn,11224.0", "census_tract_id": 36047034200, "community_district_id": "313", "city_council_district_id": "47", "school_district_id": "21", "ntaid": "BK21" }, "geometry": { "type": "Point", "coordinates": [ -73.993285563960995, 40.57360377048208 ] } },
{ "type": "Feature", "properties": { "name": "NYCDCAS: City Owned and Leased Properties;NYCDOE: LCGMS - DOE School Information Report", "poi_type": "Public K12", "address": "2929 West   30 Street,Brooklyn,11224.0", "census_tract_id": 36047034200, "community_district_id": "313", "city_council_district_id": "47", "school_district_id": "21", "ntaid": "BK21" }, "geometry": { "type": "Point", "coordinates": [ -73.995798563083184, 40.574835770327631 ] } },
{ "type": "Feature", "properties": { "name": "NYCDCAS: City Owned and Leased Properties;NYCDOE: LCGMS - DOE School Information Report", "poi_type": "Public K12", "address": "2950 West   25 Street,Brooklyn,11224.0", "census_tract_id": 36047034200, "community_district_id": "313", "city_council_district_id": "47", "school_district_id": "21", "ntaid": "BK21" }, "geometry": { "type": "Point", "coordinates": [ -73.992438564193208, 40.57424777032584 ] } },
{ "type": "Feature", "properties": { "name": "New York City Housing Authority", "poi_type": "Community centers and schools", "address": "2950 West   35 Street,Brooklyn,11224.0", "census_tract_id": 36047034200, "community_district_id": "313", "city_council_district_id": "47", "school_district_id": "21", "ntaid": "BK21" }, "geometry": { "type": "Point", "coordinates": [ -74.000792561566584, 40.573492770766279 ] } },
{ "type": "Feature", "properties": { "name": "New York City Housing Authority", "poi_type": "Community centers and schools", "address": "2945 West   33 Street,Brooklyn,11224.0", "census_tract_id": 36047034200, "community_district_id": "313", "city_council_district_id": "47", "school_district_id": "21", "ntaid": "BK21" }, "geometry": { "type": "Point", "coordinates": [ -73.998693562221703, 40.57376277063981 ] } },
{ "type": "Feature", "properties": { "name": "New York City Housing Authority", "poi_type": "Community centers and schools", "address": "2947 West   28 Street,Brooklyn,11224.0", "census_tract_id": 36047034200, "community_district_id": "313", "city_council_district_id": "47", "school_district_id": "21", "ntaid": "BK21" }, "geometry": { "type": "Point", "coordinates": [ -73.993451563842811, 40.574686770274909 ] } },
{ "type": "Feature", "properties": { "name": "Jewish Board", "poi_type": "Mental Health Orgs", "address": "2928 West 36th Street,Brooklyn,11224", "census_tract_id": 36047034200, "community_district_id": "313", "city_council_district_id": "47", "school_district_id": "21", "ntaid": "BK21" }, "geometry": { "type": "Point", "coordinates": [ -74.0019493, 40.5742381 ] } },
{ "type": "Feature", "properties": { "name": "Jewish Board of Family\/Childrens Servs", "poi_type": "Mental Health Orgs", "address": "2928 West 36th Street,Brooklyn,11224", "census_tract_id": 36047034200, "community_district_id": "313", "city_council_district_id": "47", "school_district_id": "21", "ntaid": "BK21" }, "geometry": { "type": "Point", "coordinates": [ -74.001837, 40.574336 ] } },
{ "type": "Feature", "properties": { "name": "NYCDOE: Universal Pre-K (UPK) School Locations", "poi_type": "Universal Pre K", "address": "2757 West   33 Street,Brooklyn,11224.0", "census_tract_id": 36047033000, "community_district_id": "313", "city_council_district_id": "47", "school_district_id": "21", "ntaid": "BK21" }, "geometry": { "type": "Point", "coordinates": [ -73.999075561821343, 40.578389769743353 ] } },
{ "type": "Feature", "properties": { "name": "NYCDCAS: City Owned and Leased Properties;NYCDOE: LCGMS - DOE School Information Report", "poi_type": "Public K12", "address": "2401 Neptune Avenue,Brooklyn,11224.0", "census_tract_id": 36047033000, "community_district_id": "313", "city_council_district_id": "47", "school_district_id": "21", "ntaid": "BK21" }, "geometry": { "type": "Point", "coordinates": [ -73.99240356393976, 40.57865076945879 ] } },
{ "type": "Feature", "properties": { "name": "New York City Housing Authority", "poi_type": "Community centers and schools", "address": "3146 Bay View Avenue,Brooklyn,11224.0", "census_tract_id": 36047033000, "community_district_id": "313", "city_council_district_id": "47", "school_district_id": "21", "ntaid": "BK21" }, "geometry": { "type": "Point", "coordinates": [ -73.999075561821343, 40.578389769743353 ] } },
{ "type": "Feature", "properties": { "name": "New York City Housing Authority", "poi_type": "Community centers and schools", "address": "2757 West   33 Street,Brooklyn,11224.0", "census_tract_id": 36047033000, "community_district_id": "313", "city_council_district_id": "47", "school_district_id": "21", "ntaid": "BK21" }, "geometry": { "type": "Point", "coordinates": [ -73.999075561821343, 40.578389769743353 ] } },
{ "type": "Feature", "properties": { "name": "NYCDCAS: City Owned and Leased Properties;NYCDOE: Universal Pre-K (UPK) School Locations", "poi_type": "Universal Pre K", "address": "3001 West   37 Street,Brooklyn,11224.0", "census_tract_id": 36047034000, "community_district_id": "313", "city_council_district_id": "47", "school_district_id": "21", "ntaid": "BK21" }, "geometry": { "type": "Point", "coordinates": [ -74.002164561173757, 40.57272777096469 ] } },
{ "type": "Feature", "properties": { "name": "NYCDCAS: City Owned and Leased Properties;NYCDOE: Universal Pre-K (UPK) School Locations", "poi_type": "Universal Pre K", "address": "3001 West   37 Street,Brooklyn,11224.0", "census_tract_id": 36047034000, "community_district_id": "313", "city_council_district_id": "47", "school_district_id": "21", "ntaid": "BK21" }, "geometry": { "type": "Point", "coordinates": [ -74.002164561173757, 40.57272777096469 ] } },
{ "type": "Feature", "properties": { "name": "NYCDOE: Universal Pre-K (UPK) School Locations", "poi_type": "Universal Pre K", "address": "3524 Neptune Avenue,Brooklyn,11224.0", "census_tract_id": 36047032800, "community_district_id": "313", "city_council_district_id": "47", "school_district_id": "21", "ntaid": "BK21" }, "geometry": { "type": "Point", "coordinates": [ -74.001876561019316, 40.576828770148204 ] } },
{ "type": "Feature", "properties": { "name": "NYCDCAS: City Owned and Leased Properties;NYCDOE: Universal Pre-K (UPK) School Locations", "poi_type": "Universal Pre K", "address": "3314 Neptune Avenue,Brooklyn,11224.0", "census_tract_id": 36047032800, "community_district_id": "313", "city_council_district_id": "47", "school_district_id": "21", "ntaid": "BK21" }, "geometry": { "type": "Point", "coordinates": [ -74.000502561459456, 40.576817770102295 ] } },
{ "type": "Feature", "properties": { "name": "NYCDCAS: City Owned and Leased Properties;NYCDOE: LCGMS - DOE School Information Report", "poi_type": "Public K12", "address": "2815 West   35 Street,Brooklyn,11224.0", "census_tract_id": 36047032800, "community_district_id": "313", "city_council_district_id": "47", "school_district_id": "21", "ntaid": "BK21" }, "geometry": { "type": "Point", "coordinates": [ -74.000725561404764, 40.576540770164598 ] } },
{ "type": "Feature", "properties": { "name": "NYCDCAS: City Owned and Leased Properties;NYCDOE: LCGMS - DOE School Information Report", "poi_type": "Public K12", "address": "3314 Neptune Avenue,Brooklyn,11224.0", "census_tract_id": 36047032800, "community_district_id": "313", "city_council_district_id": "47", "school_district_id": "21", "ntaid": "BK21" }, "geometry": { "type": "Point", "coordinates": [ -74.000502561459456, 40.576817770102295 ] } },
{ "type": "Feature", "properties": { "name": "FBNYC: FBNYC Food Pantry Soup Kitchen List 8-5-16", "poi_type": "Food Kitches and Pantries", "address": "2417 Stillwell Avenue,Brooklyn,11223.0", "census_tract_id": 36047030800, "community_district_id": "313", "city_council_district_id": "47", "school_district_id": "21", "ntaid": "BK26" }, "geometry": { "type": "Point", "coordinates": [ -73.983424566217209, 40.588543767199951 ] } },
{ "type": "Feature", "properties": { "name": "NYCDCAS: City Owned and Leased Properties;NYCDOE: LCGMS - DOE School Information Report", "poi_type": "Public K12", "address": "50 Avenue X,Brooklyn,11223.0", "census_tract_id": 36047030800, "community_district_id": "313", "city_council_district_id": "47", "school_district_id": "21", "ntaid": "BK26" }, "geometry": { "type": "Point", "coordinates": [ -73.98147056689659, 40.58764076730921 ] } },
{ "type": "Feature", "properties": { "name": "Goodwill Industries of Greater New York & Northern New Jersey, Inc.", "poi_type": "Mental Health Orgs", "address": "2559 West 13th Street,BROOKLYN,11223", "census_tract_id": 36047030800, "community_district_id": "313", "city_council_district_id": "47", "school_district_id": "21", "ntaid": "BK26" }, "geometry": { "type": "Point", "coordinates": [ -73.982092265199896, 40.585493492200001 ] } },
{ "type": "Feature", "properties": { "name": "Goodwill Industries of Greater New York & Northern New Jersey, Inc.", "poi_type": "Mental Health Orgs", "address": "2559 West 13th Street,BROOKLYN,11223", "census_tract_id": 36047030800, "community_district_id": "313", "city_council_district_id": "47", "school_district_id": "21", "ntaid": "BK26" }, "geometry": { "type": "Point", "coordinates": [ -73.982092265199896, 40.585493492200001 ] } },
{ "type": "Feature", "properties": { "name": "NYCDFTA: DFTA Contracts", "poi_type": "Senior Centers", "address": "2298 West    8 Street,Brooklyn,11223.0", "census_tract_id": 36047038200, "community_district_id": "313", "city_council_district_id": "47", "school_district_id": "21", "ntaid": "BK26" }, "geometry": { "type": "Point", "coordinates": [ -73.978737567518209, 40.591843766387449 ] } },
{ "type": "Feature", "properties": { "name": "New York City Housing Authority", "poi_type": "Community centers and schools", "address": "49 Avenue W,Brooklyn,11223.0", "census_tract_id": 36047038200, "community_district_id": "313", "city_council_district_id": "47", "school_district_id": "21", "ntaid": "BK26" }, "geometry": { "type": "Point", "coordinates": [ -73.982164566422654, 40.591830766509759 ] } },
{ "type": "Feature", "properties": { "name": "New York City Housing Authority", "poi_type": "Community centers and schools", "address": "2298 West    8 Street,Brooklyn,11223.0", "census_tract_id": 36047038200, "community_district_id": "313", "city_council_district_id": "47", "school_district_id": "21", "ntaid": "BK26" }, "geometry": { "type": "Point", "coordinates": [ -73.978737567518209, 40.591843766387449 ] } },
{ "type": "Feature", "properties": { "name": "New York City Housing Authority", "poi_type": "Community centers and schools", "address": "2298 West    8 Street,Brooklyn,11223.0", "census_tract_id": 36047038200, "community_district_id": "313", "city_council_district_id": "47", "school_district_id": "21", "ntaid": "BK26" }, "geometry": { "type": "Point", "coordinates": [ -73.978737567518209, 40.591843766387449 ] } },
{ "type": "Feature", "properties": { "name": "NYCDOE: Universal Pre-K (UPK) School Locations", "poi_type": "Universal Pre K", "address": "133 27 Avenue,Brooklyn,11214.0", "census_tract_id": 36047030600, "community_district_id": "313", "city_council_district_id": "47", "school_district_id": "21", "ntaid": "BK26" }, "geometry": { "type": "Point", "coordinates": [ -73.987129564912863, 40.590524766940021 ] } },
{ "type": "Feature", "properties": { "name": "NYCDCAS: City Owned and Leased Properties;NYCDOE: LCGMS - DOE School Information Report", "poi_type": "Public K12", "address": "2630 Benson Avenue,Brooklyn,11214.0", "census_tract_id": 36047030600, "community_district_id": "313", "city_council_district_id": "47", "school_district_id": "21", "ntaid": "BK26" }, "geometry": { "type": "Point", "coordinates": [ -73.986155565040534, 40.593582766304834 ] } },
{ "type": "Feature", "properties": { "name": "NYCDCAS: City Owned and Leased Properties;NYCDOE: LCGMS - DOE School Information Report", "poi_type": "Public K12", "address": "2630 Benson Avenue,Brooklyn,11214.0", "census_tract_id": 36047030600, "community_district_id": "313", "city_council_district_id": "47", "school_district_id": "21", "ntaid": "BK26" }, "geometry": { "type": "Point", "coordinates": [ -73.986155565040534, 40.593582766304834 ] } },
{ "type": "Feature", "properties": { "name": "NYCDCAS: City Owned and Leased Properties;NYCDOE: LCGMS - DOE School Information Report", "poi_type": "Public K12", "address": "2630 Benson Avenue,Brooklyn,11214.0", "census_tract_id": 36047030600, "community_district_id": "313", "city_council_district_id": "47", "school_district_id": "21", "ntaid": "BK26" }, "geometry": { "type": "Point", "coordinates": [ -73.986155565040534, 40.593582766304834 ] } },
{ "type": "Feature", "properties": { "name": "NYCDCAS: City Owned and Leased Properties;NYCDOE: LCGMS - DOE School Information Report", "poi_type": "Public K12", "address": "2630 Benson Avenue,Brooklyn,11214.0", "census_tract_id": 36047030600, "community_district_id": "313", "city_council_district_id": "47", "school_district_id": "21", "ntaid": "BK26" }, "geometry": { "type": "Point", "coordinates": [ -73.986155565040534, 40.593582766304834 ] } },
{ "type": "Feature", "properties": { "name": "NYCDCAS: City Owned and Leased Properties;NYCDOE: LCGMS - DOE School Information Report", "poi_type": "Public K12", "address": "2630 Benson Avenue,Brooklyn,11214.0", "census_tract_id": 36047030600, "community_district_id": "313", "city_council_district_id": "47", "school_district_id": "21", "ntaid": "BK26" }, "geometry": { "type": "Point", "coordinates": [ -73.986155565040534, 40.593582766304834 ] } },
{ "type": "Feature", "properties": { "name": "NYCDCAS: City Owned and Leased Properties;NYCDOE: Universal Pre-K (UPK) School Locations", "poi_type": "Universal Pre K", "address": "87 Bay   49 Street,Brooklyn,11214.0", "census_tract_id": 36047031400, "community_district_id": "313", "city_council_district_id": "47", "school_district_id": "21", "ntaid": "BK26" }, "geometry": { "type": "Point", "coordinates": [ -73.985571565595322, 40.587463767487286 ] } },
{ "type": "Feature", "properties": { "name": "NYCDCAS: City Owned and Leased Properties;NYCDOE: LCGMS - DOE School Information Report", "poi_type": "Public K12", "address": "87 Bay   49 Street,Brooklyn,11214.0", "census_tract_id": 36047031400, "community_district_id": "313", "city_council_district_id": "47", "school_district_id": "21", "ntaid": "BK26" }, "geometry": { "type": "Point", "coordinates": [ -73.985571565595322, 40.587463767487286 ] } },
{ "type": "Feature", "properties": { "name": "NYCDOE: Universal Pre-K (UPK) School Locations;NYCDOHMH: DOHMH Childcare Center Inspections", "poi_type": "Universal Pre K", "address": "723 Avenue Z,Brooklyn,11223.0", "census_tract_id": 36047037401, "community_district_id": "313", "city_council_district_id": "47", "school_district_id": "21", "ntaid": "BK26" }, "geometry": { "type": "Point", "coordinates": [ -73.967399571450386, 40.586769766988951 ] } },
{ "type": "Feature", "properties": { "name": "Shostakovich Music, Art And Sport School Inc.", "poi_type": "Community Schools", "address": "297 Avenue X,Brooklyn,11223.0", "census_tract_id": 36047038600, "community_district_id": "315", "city_council_district_id": "47", "school_district_id": "21", "ntaid": "BK26" }, "geometry": { "type": "Point", "coordinates": [ -73.97197156976128, 40.590537766407813 ] } },
{ "type": "Feature", "properties": { "name": "Shostakovich Music,Art And Sport School Inc.", "poi_type": "Community centers and schools", "address": "297 Avenue X,Brooklyn,11223.0", "census_tract_id": 36047038600, "community_district_id": "315", "city_council_district_id": "47", "school_district_id": "21", "ntaid": "BK26" }, "geometry": { "type": "Point", "coordinates": [ -73.97197156976128, 40.590537766407813 ] } },
{ "type": "Feature", "properties": { "name": "SAFE Foundation Inc", "poi_type": "Mental Health Orgs", "address": "255 Avenue West,Brooklyn,11223", "census_tract_id": 36047038600, "community_district_id": "315", "city_council_district_id": "47", "school_district_id": "21", "ntaid": "BK26" }, "geometry": { "type": "Point", "coordinates": [ -73.973576, 40.592559 ] } },
{ "type": "Feature", "properties": { "name": "SAFE Foundation OP", "poi_type": "Mental Health Orgs", "address": "255 Avenue W,Brooklyn,11223", "census_tract_id": 36047038600, "community_district_id": "315", "city_council_district_id": "47", "school_district_id": "21", "ntaid": "BK26" }, "geometry": { "type": "Point", "coordinates": [ -73.973576, 40.592559 ] } },
{ "type": "Feature", "properties": { "name": "NYCOMB: District Resource Statement", "poi_type": "Libraries", "address": "303 Avenue X,Brooklyn,11223.0", "census_tract_id": 36047038600, "community_district_id": "315", "city_council_district_id": "47", "school_district_id": "21", "ntaid": "BK26" }, "geometry": { "type": "Point", "coordinates": [ -73.971807569813862, 40.590535766402489 ] } },
{ "type": "Feature", "properties": { "name": "NYCDCAS: City Owned and Leased Properties;NYCDOE: Universal Pre-K (UPK) School Locations", "poi_type": "Universal Pre K", "address": "345 Van Sicklen Street,Brooklyn,11223.0", "census_tract_id": 36047039800, "community_district_id": "315", "city_council_district_id": "47", "school_district_id": "21", "ntaid": "BK26" }, "geometry": { "type": "Point", "coordinates": [ -73.974844568520083, 40.595894765455142 ] } },
{ "type": "Feature", "properties": { "name": "NYCDCAS: City Owned and Leased Properties;NYCDOE: LCGMS - DOE School Information Report", "poi_type": "Public K12", "address": "345 Van Sicklen Street,Brooklyn,11223.0", "census_tract_id": 36047039800, "community_district_id": "315", "city_council_district_id": "47", "school_district_id": "21", "ntaid": "BK26" }, "geometry": { "type": "Point", "coordinates": [ -73.974844568520083, 40.595894765455142 ] } },
{ "type": "Feature", "properties": { "name": "NYCDCAS: City Owned and Leased Properties;NYCDOE: LCGMS - DOE School Information Report", "poi_type": "Public K12", "address": "345 Van Sicklen Street,Brooklyn,11223.0", "census_tract_id": 36047039800, "community_district_id": "315", "city_council_district_id": "47", "school_district_id": "21", "ntaid": "BK26" }, "geometry": { "type": "Point", "coordinates": [ -73.974844568520083, 40.595894765455142 ] } },
{ "type": "Feature", "properties": { "name": "NYCDCAS: City Owned and Leased Properties;NYCDOE: Universal Pre-K (UPK) School Locations", "poi_type": "Universal Pre K", "address": "350 Avenue X,Brooklyn,11223.0", "census_tract_id": 36047037401, "community_district_id": "315", "city_council_district_id": "47", "school_district_id": "21", "ntaid": "BK26" }, "geometry": { "type": "Point", "coordinates": [ -73.969776570482566, 40.590220766393486 ] } },
{ "type": "Feature", "properties": { "name": "NYCDCAS: City Owned and Leased Properties;NYCDOE: LCGMS - DOE School Information Report", "poi_type": "Public K12", "address": "2421 West Street,Brooklyn,11223.0", "census_tract_id": 36047037401, "community_district_id": "315", "city_council_district_id": "47", "school_district_id": "21", "ntaid": "BK26" }, "geometry": { "type": "Point", "coordinates": [ -73.969669570539764, 40.589838766464844 ] } },
{ "type": "Feature", "properties": { "name": "NYCDCAS: City Owned and Leased Properties;NYCDOE: LCGMS - DOE School Information Report", "poi_type": "Public K12", "address": "350 Avenue X,Brooklyn,11223.0", "census_tract_id": 36047037401, "community_district_id": "315", "city_council_district_id": "47", "school_district_id": "21", "ntaid": "BK26" }, "geometry": { "type": "Point", "coordinates": [ -73.969776570482566, 40.590220766393486 ] } },
{ "type": "Feature", "properties": { "name": "NYCDOE: Universal Pre-K (UPK) School Locations", "poi_type": "Universal Pre K", "address": "8885 26 Avenue,Brooklyn,11214.0", "census_tract_id": 36047031400, "community_district_id": "313", "city_council_district_id": "43", "school_district_id": "21", "ntaid": "BK26" }, "geometry": { "type": "Point", "coordinates": [ -73.990386563861733, 40.590677767023777 ] } },
{ "type": "Feature", "properties": { "name": "NYCDFTA: DFTA Contracts", "poi_type": "Senior Centers", "address": "2880 West   12 Street,Brooklyn,11224.0", "census_tract_id": 36047035000, "community_district_id": "313", "city_council_district_id": "47", "school_district_id": "21", "ntaid": "BK23" }, "geometry": { "type": "Point", "coordinates": [ -73.980272567891134, 40.577468769267384 ] } },
{ "type": "Feature", "properties": { "name": "NYCDCAS: City Owned and Leased Properties;NYCDOE: Universal Pre-K (UPK) School Locations", "poi_type": "Universal Pre K", "address": "2840 West   12 Street,Brooklyn,11224.0", "census_tract_id": 36047035000, "community_district_id": "313", "city_council_district_id": "47", "school_district_id": "21", "ntaid": "BK23" }, "geometry": { "type": "Point", "coordinates": [ -73.980121567899971, 40.578125769132903 ] } },
{ "type": "Feature", "properties": { "name": "NYCDCAS: City Owned and Leased Properties;NYCDOE: LCGMS - DOE School Information Report", "poi_type": "Public K12", "address": "2840 West   12 Street,Brooklyn,11224.0", "census_tract_id": 36047035000, "community_district_id": "313", "city_council_district_id": "47", "school_district_id": "21", "ntaid": "BK23" }, "geometry": { "type": "Point", "coordinates": [ -73.980121567899971, 40.578125769132903 ] } },
{ "type": "Feature", "properties": { "name": "NYCDOE: Universal Pre-K (UPK) School Locations", "poi_type": "Universal Pre K", "address": "2785 West    5 Street,Brooklyn,11224.0", "census_tract_id": 36047035601, "community_district_id": "313", "city_council_district_id": "47", "school_district_id": "21", "ntaid": "BK23" }, "geometry": { "type": "Point", "coordinates": [ -73.970908570670787, 40.581060768234025 ] } },
{ "type": "Feature", "properties": { "name": "NYCDCAS: City Owned and Leased Properties;NYCDOE: LCGMS - DOE School Information Report", "poi_type": "Public K12", "address": "501 West Avenue,Brooklyn,11224.0", "census_tract_id": 36047035400, "community_district_id": "313", "city_council_district_id": "47", "school_district_id": "21", "ntaid": "BK23" }, "geometry": { "type": "Point", "coordinates": [ -73.972163570184193, 40.582477767999222 ] } },
{ "type": "Feature", "properties": { "name": "NYCDCAS: City Owned and Leased Properties;NYCDOE: LCGMS - DOE School Information Report", "poi_type": "Public K12", "address": "2800 Ocean Parkway,Brooklyn,11235.0", "census_tract_id": 36047035400, "community_district_id": "313", "city_council_district_id": "47", "school_district_id": "21", "ntaid": "BK23" }, "geometry": { "type": "Point", "coordinates": [ -73.968276571435538, 40.582346767889234 ] } },
{ "type": "Feature", "properties": { "name": "NYCDCAS: City Owned and Leased Properties;NYCDOE: LCGMS - DOE School Information Report", "poi_type": "Public K12", "address": "501 West Avenue,Brooklyn,11224.0", "census_tract_id": 36047035400, "community_district_id": "313", "city_council_district_id": "47", "school_district_id": "21", "ntaid": "BK23" }, "geometry": { "type": "Point", "coordinates": [ -73.972163570184193, 40.582477767999222 ] } },
{ "type": "Feature", "properties": { "name": "NYCDOE: Universal Pre-K (UPK) School Locations;NYCDOHMH: DOHMH Childcare Center Inspections", "poi_type": "Universal Pre K", "address": "448 Neptune Avenue,Brooklyn,11224.0", "census_tract_id": 36047035602, "community_district_id": "313", "city_council_district_id": "48", "school_district_id": "21", "ntaid": "BK23" }, "geometry": { "type": "Point", "coordinates": [ -73.969913571118113, 40.578912768621663 ] } },
{ "type": "Feature", "properties": { "name": "NYCDCAS: City Owned and Leased Properties;NYCDOE: Universal Pre-K (UPK) School Locations", "poi_type": "Universal Pre K", "address": "2951 West    3 Street,Brooklyn,11224.0", "census_tract_id": 36047035602, "community_district_id": "313", "city_council_district_id": "48", "school_district_id": "21", "ntaid": "BK23" }, "geometry": { "type": "Point", "coordinates": [ -73.970846570900918, 40.57755976892031 ] } },
{ "type": "Feature", "properties": { "name": "NYCDCAS: City Owned and Leased Properties;NYCDOE: LCGMS - DOE School Information Report", "poi_type": "Public K12", "address": "2951 West    3 Street,Brooklyn,11224.0", "census_tract_id": 36047035602, "community_district_id": "313", "city_council_district_id": "48", "school_district_id": "21", "ntaid": "BK23" }, "geometry": { "type": "Point", "coordinates": [ -73.970846570900918, 40.57755976892031 ] } },
{ "type": "Feature", "properties": { "name": "NYCDCAS: City Owned and Leased Properties", "poi_type": "Public K12", "address": "3001 West    2 Street,Brooklyn,11224.0", "census_tract_id": 36047035602, "community_district_id": "313", "city_council_district_id": "48", "school_district_id": "21", "ntaid": "BK23" }, "geometry": { "type": "Point", "coordinates": [ -73.969839571215047, 40.577692768859009 ] } },
{ "type": "Feature", "properties": { "name": "South Beach Psych Ctr\/Coney Island", "poi_type": "Mental Health Orgs", "address": "532 Neptune Avenue,Brooklyn,11224", "census_tract_id": 36047035400, "community_district_id": "313", "city_council_district_id": "48", "school_district_id": "21", "ntaid": "BK23" }, "geometry": { "type": "Point", "coordinates": [ -73.9743, 40.579657 ] } },
{ "type": "Feature", "properties": { "name": "NYCHHS: HHS Accelerator - Selected Proposals", "poi_type": "Universal Pre K", "address": "2720 86 Street,Brooklyn,11223.0", "census_tract_id": 36047040200, "community_district_id": "313", "city_council_district_id": "47", "school_district_id": "21", "ntaid": "BK29" }, "geometry": { "type": "Point", "coordinates": [ -73.981523566487553, 40.594161766029153 ] } },
{ "type": "Feature", "properties": { "name": "NYCDCAS: City Owned and Leased Properties;NYCOMB: District Resource Statement", "poi_type": "Libraries", "address": "2602 Bath Avenue,Brooklyn,11214.0", "census_tract_id": 36047030400, "community_district_id": "313", "city_council_district_id": "47", "school_district_id": "21", "ntaid": "BK29" }, "geometry": { "type": "Point", "coordinates": [ -73.988649564300218, 40.592625766580127 ] } },
{ "type": "Feature", "properties": { "name": "New Life SDA Church", "poi_type": "Faith Based Organizations", "address": "425 Kings Highway,Brooklyn,NY,11223", "census_tract_id": 36047040000, "community_district_id": "311", "city_council_district_id": "47", "school_district_id": "21", "ntaid": "BK29" }, "geometry": { "type": "Point", "coordinates": [ -73.973429, 40.597139 ] } },
{ "type": "Feature", "properties": { "name": "St. Peter Catholic Academy", "poi_type": "Community Schools", "address": "8401 23 Avenue,Brooklyn,11214.0", "census_tract_id": 36047029800, "community_district_id": "311", "city_council_district_id": "47", "school_district_id": "21", "ntaid": "BK29" }, "geometry": { "type": "Point", "coordinates": [ -73.990254563260109, 40.601378764915879 ] } },
{ "type": "Feature", "properties": { "name": "NYCDOE: Universal Pre-K (UPK) School Locations", "poi_type": "Universal Pre K", "address": "8401 23 Avenue,Brooklyn,11214.0", "census_tract_id": 36047029800, "community_district_id": "311", "city_council_district_id": "47", "school_district_id": "21", "ntaid": "BK29" }, "geometry": { "type": "Point", "coordinates": [ -73.990254563260109, 40.601378764915879 ] } },
{ "type": "Feature", "properties": { "name": "St. Peter Catholic Academy", "poi_type": "Community centers and schools", "address": "8401 23 Avenue,Brooklyn,11214.0", "census_tract_id": 36047029800, "community_district_id": "311", "city_council_district_id": "47", "school_district_id": "21", "ntaid": "BK29" }, "geometry": { "type": "Point", "coordinates": [ -73.990254563260109, 40.601378764915879 ] } },
{ "type": "Feature", "properties": { "name": "Stillwell Prep Extension", "poi_type": "Community Schools", "address": "132 Highlawn Avenue,Brooklyn,11223.0", "census_tract_id": 36047040800, "community_district_id": "311", "city_council_district_id": "47", "school_district_id": "21", "ntaid": "BK29" }, "geometry": { "type": "Point", "coordinates": [ -73.981205566056957, 40.603010764278835 ] } },
{ "type": "Feature", "properties": { "name": "Stillwell Ave Prep School", "poi_type": "Community centers and schools", "address": "132 Highlawn Avenue,Brooklyn,11223.0", "census_tract_id": 36047040800, "community_district_id": "311", "city_council_district_id": "47", "school_district_id": "21", "ntaid": "BK29" }, "geometry": { "type": "Point", "coordinates": [ -73.981205566056957, 40.603010764278835 ] } },
{ "type": "Feature", "properties": { "name": "NYCDOE: Universal Pre-K (UPK) School Locations;NYCDOHMH: DOHMH Childcare Center Inspections", "poi_type": "Universal Pre K", "address": "2631 86 Street,Brooklyn,11223.0", "census_tract_id": 36047040200, "community_district_id": "311", "city_council_district_id": "47", "school_district_id": "21", "ntaid": "BK29" }, "geometry": { "type": "Point", "coordinates": [ -73.984396565428554, 40.596486765672566 ] } },
{ "type": "Feature", "properties": { "name": "NYCDOE: Universal Pre-K (UPK) School Locations", "poi_type": "Universal Pre K", "address": "2170 Mc Donald Avenue,Brooklyn,11223.0", "census_tract_id": 36047041000, "community_district_id": "311", "city_council_district_id": "47", "school_district_id": "21", "ntaid": "BK29" }, "geometry": { "type": "Point", "coordinates": [ -73.973132568831971, 40.599816764624421 ] } },
{ "type": "Feature", "properties": { "name": "NYCHHS: HHS Accelerator - Selected Proposals", "poi_type": "Universal Pre K", "address": "2170 Mc Donald Avenue,Brooklyn,11223.0", "census_tract_id": 36047041000, "community_district_id": "311", "city_council_district_id": "47", "school_district_id": "21", "ntaid": "BK29" }, "geometry": { "type": "Point", "coordinates": [ -73.973132568831971, 40.599816764624421 ] } },
{ "type": "Feature", "properties": { "name": "NYCDCAS: City Owned and Leased Properties;NYCDOE: LCGMS - DOE School Information Report", "poi_type": "Public K12", "address": "228 Avenue S,Brooklyn,11223.0", "census_tract_id": 36047041000, "community_district_id": "311", "city_council_district_id": "47", "school_district_id": "21", "ntaid": "BK29" }, "geometry": { "type": "Point", "coordinates": [ -73.976819567591079, 40.600835764552983 ] } },
{ "type": "Feature", "properties": { "name": "NYCHHS: HHS Accelerator - Selected Proposals", "poi_type": "Universal Pre K", "address": "49 Avenue T,Brooklyn,11223.0", "census_tract_id": 36047040600, "community_district_id": "311", "city_council_district_id": "47", "school_district_id": "21", "ntaid": "BK29" }, "geometry": { "type": "Point", "coordinates": [ -73.983125565717756, 40.598438765244481 ] } },
{ "type": "Feature", "properties": { "name": "NYCDOE: Universal Pre-K (UPK) School Locations", "poi_type": "Universal Pre K", "address": "49 Avenue T,Brooklyn,11223.0", "census_tract_id": 36047040600, "community_district_id": "311", "city_council_district_id": "47", "school_district_id": "21", "ntaid": "BK29" }, "geometry": { "type": "Point", "coordinates": [ -73.983125565717756, 40.598438765244481 ] } },
{ "type": "Feature", "properties": { "name": "NYCDCAS: City Owned and Leased Properties;NYCDOE: Universal Pre-K (UPK) School Locations", "poi_type": "Universal Pre K", "address": "1855 Stillwell Avenue,Brooklyn,11223.0", "census_tract_id": 36047040400, "community_district_id": "311", "city_council_district_id": "47", "school_district_id": "21", "ntaid": "BK29" }, "geometry": { "type": "Point", "coordinates": [ -73.985688564734431, 40.601153764800472 ] } },
{ "type": "Feature", "properties": { "name": "NYCDCAS: City Owned and Leased Properties;NYCDOE: LCGMS - DOE School Information Report", "poi_type": "Public K12", "address": "1855 Stillwell Avenue,Brooklyn,11223.0", "census_tract_id": 36047040400, "community_district_id": "311", "city_council_district_id": "47", "school_district_id": "21", "ntaid": "BK29" }, "geometry": { "type": "Point", "coordinates": [ -73.985688564734431, 40.601153764800472 ] } },
{ "type": "Feature", "properties": { "name": "NYCDCAS: City Owned and Leased Properties;NYCDOE: LCGMS - DOE School Information Report", "poi_type": "Public K12", "address": "1855 Stillwell Avenue,Brooklyn,11223.0", "census_tract_id": 36047040400, "community_district_id": "311", "city_council_district_id": "47", "school_district_id": "21", "ntaid": "BK29" }, "geometry": { "type": "Point", "coordinates": [ -73.985688564734431, 40.601153764800472 ] } },
{ "type": "Feature", "properties": { "name": "NYCDCAS: City Owned and Leased Properties;NYCDOE: LCGMS - DOE School Information Report", "poi_type": "Public K12", "address": "2360 Benson Avenue,Brooklyn,11214.0", "census_tract_id": 36047030200, "community_district_id": "311", "city_council_district_id": "47", "school_district_id": "21", "ntaid": "BK29" }, "geometry": { "type": "Point", "coordinates": [ -73.991927562957059, 40.597520765732611 ] } },
{ "type": "Feature", "properties": { "name": "NYCDCAS: City Owned and Leased Properties;NYCDOE: LCGMS - DOE School Information Report", "poi_type": "Public K12", "address": "8787 24 Avenue,Brooklyn,11214.0", "census_tract_id": 36047030400, "community_district_id": "311", "city_council_district_id": "47", "school_district_id": "21", "ntaid": "BK29" }, "geometry": { "type": "Point", "coordinates": [ -73.993856562528137, 40.594393766414662 ] } },
{ "type": "Feature", "properties": { "name": "Gold Material Montessori School", "poi_type": "Community Schools", "address": "105 Kings Highway,Brooklyn,11214.0", "census_tract_id": 36047042800, "community_district_id": "311", "city_council_district_id": "44", "school_district_id": "21", "ntaid": "BK29" }, "geometry": { "type": "Point", "coordinates": [ -73.987852563725269, 40.606417763841691 ] } },
{ "type": "Feature", "properties": { "name": "NYCDOE: Universal Pre-K (UPK) School Locations;NYCDOHMH: DOHMH Childcare Center Inspections", "poi_type": "Universal Pre K", "address": "52 Quentin Road,Brooklyn,11223.0", "census_tract_id": 36047042800, "community_district_id": "311", "city_council_district_id": "44", "school_district_id": "21", "ntaid": "BK29" }, "geometry": { "type": "Point", "coordinates": [ -73.984671564820417, 40.605131763983174 ] } },
{ "type": "Feature", "properties": { "name": "NYCDOE: Universal Pre-K (UPK) School Locations;NYCDOHMH: DOHMH Childcare Center Inspections", "poi_type": "Universal Pre K", "address": "105 Kings Highway,Brooklyn,11214.0", "census_tract_id": 36047042800, "community_district_id": "311", "city_council_district_id": "44", "school_district_id": "21", "ntaid": "BK29" }, "geometry": { "type": "Point", "coordinates": [ -73.987852563725269, 40.606417763841691 ] } },
{ "type": "Feature", "properties": { "name": "NYCDCAS: City Owned and Leased Properties;NYCDOE: LCGMS - DOE School Information Report", "poi_type": "Public K12", "address": "50 Avenue P,Brooklyn,11204.0", "census_tract_id": 36047042800, "community_district_id": "311", "city_council_district_id": "44", "school_district_id": "21", "ntaid": "BK29" }, "geometry": { "type": "Point", "coordinates": [ -73.986699564063414, 40.606928763700971 ] } },
{ "type": "Feature", "properties": { "name": "NYCDCAS: City Owned and Leased Properties;NYCDOE: LCGMS - DOE School Information Report", "poi_type": "Public K12", "address": "50 Avenue P,Brooklyn,11204.0", "census_tract_id": 36047042800, "community_district_id": "311", "city_council_district_id": "44", "school_district_id": "21", "ntaid": "BK29" }, "geometry": { "type": "Point", "coordinates": [ -73.986699564063414, 40.606928763700971 ] } },
{ "type": "Feature", "properties": { "name": "Child Care Workers Corp", "poi_type": "Community centers and schools", "address": "105 Kings Highway,Brooklyn,11214.0", "census_tract_id": 36047042800, "community_district_id": "311", "city_council_district_id": "44", "school_district_id": "21", "ntaid": "BK29" }, "geometry": { "type": "Point", "coordinates": [ -73.987852563725269, 40.606417763841691 ] } },
{ "type": "Feature", "properties": { "name": "FBNYC: FBNYC Food Pantry Soup Kitchen List 8-5-16", "poi_type": "Food Kitches and Pantries", "address": "425 Kings Highway,Brooklyn,11223.0", "census_tract_id": 36047041200, "community_district_id": "311", "city_council_district_id": "44", "school_district_id": "21", "ntaid": "BK29" }, "geometry": { "type": "Point", "coordinates": [ -73.974528568091799, 40.604696763714124 ] } },
{ "type": "Feature", "properties": { "name": "NYCDOE: Universal Pre-K (UPK) School Locations", "poi_type": "Universal Pre K", "address": "412 Kings Highway,Brooklyn,11223.0", "census_tract_id": 36047041200, "community_district_id": "311", "city_council_district_id": "44", "school_district_id": "21", "ntaid": "BK29" }, "geometry": { "type": "Point", "coordinates": [ -73.974645568083488, 40.604212763813337 ] } },
{ "type": "Feature", "properties": { "name": "NYCDFTA: DFTA Contracts", "poi_type": "Senior Centers", "address": "6222 23 Avenue,Brooklyn,11204.0", "census_tract_id": 36047043600, "community_district_id": "311", "city_council_district_id": "44", "school_district_id": "21", "ntaid": "BK29" }, "geometry": { "type": "Point", "coordinates": [ -73.978098566393967, 40.613928762024877 ] } },
{ "type": "Feature", "properties": { "name": "NYCHHS: HHS Accelerator - Selected Proposals", "poi_type": "Universal Pre K", "address": "1457 West    5 Street,Brooklyn,11204.0", "census_tract_id": 36047043400, "community_district_id": "311", "city_council_district_id": "44", "school_district_id": "21", "ntaid": "BK29" }, "geometry": { "type": "Point", "coordinates": [ -73.979342566131905, 40.611669762512207 ] } },
{ "type": "Feature", "properties": { "name": "NYCDCAS: City Owned and Leased Properties;NYCDOE: Universal Pre-K (UPK) School Locations", "poi_type": "Universal Pre K", "address": "346 Avenue P,Brooklyn,11204.0", "census_tract_id": 36047042400, "community_district_id": "311", "city_council_district_id": "44", "school_district_id": "21", "ntaid": "BK29" }, "geometry": { "type": "Point", "coordinates": [ -73.974468567896139, 40.608267763010275 ] } },
{ "type": "Feature", "properties": { "name": "NYCDCAS: City Owned and Leased Properties;NYCDOE: LCGMS - DOE School Information Report", "poi_type": "Public K12", "address": "346 Avenue P,Brooklyn,11204.0", "census_tract_id": 36047042400, "community_district_id": "311", "city_council_district_id": "44", "school_district_id": "21", "ntaid": "BK29" }, "geometry": { "type": "Point", "coordinates": [ -73.974468567896139, 40.608267763010275 ] } },
{ "type": "Feature", "properties": { "name": "NYCDCAS: City Owned and Leased Properties;NYCOMB: District Resource Statement", "poi_type": "Libraries", "address": "1664 West   13 Street,Brooklyn,11223.0", "census_tract_id": 36047040400, "community_district_id": "311", "city_council_district_id": "44", "school_district_id": "21", "ntaid": "BK29" }, "geometry": { "type": "Point", "coordinates": [ -73.98622856428922, 40.605680763929726 ] } },
{ "type": "Feature", "properties": { "name": "NYCDCAS: City Owned and Leased Properties;NYCDOE: LCGMS - DOE School Information Report", "poi_type": "Public K12", "address": "99 Avenue P,Brooklyn,11204.0", "census_tract_id": 36047043000, "community_district_id": "311", "city_council_district_id": "44", "school_district_id": "21", "ntaid": "BK29" }, "geometry": { "type": "Point", "coordinates": [ -73.984970564553265, 40.607980763433815 ] } },
{ "type": "Feature", "properties": { "name": "NYCHHS: HHS Accelerator - Selected Proposals", "poi_type": "Universal Pre K", "address": "1379 West    7 Street,Brooklyn,11204.0", "census_tract_id": 36047043200, "community_district_id": "311", "city_council_district_id": "44", "school_district_id": "20", "ntaid": "BK29" }, "geometry": { "type": "Point", "coordinates": [ -73.981098565572296, 40.611632762580825 ] } },
{ "type": "Feature", "properties": { "name": "FBNYC: FBNYC Food Pantry Soup Kitchen List 8-5-16", "poi_type": "Food Kitches and Pantries", "address": "2322 East    4 Street,Brooklyn,11223.0", "census_tract_id": 36047038800, "community_district_id": "315", "city_council_district_id": "47", "school_district_id": "21", "ntaid": "BK25" }, "geometry": { "type": "Point", "coordinates": [ -73.967335571070279, 40.593435765676162 ] } },
{ "type": "Feature", "properties": { "name": "NYCDOE: Universal Pre-K (UPK) School Locations", "poi_type": "Universal Pre K", "address": "385 Avenue W,Brooklyn,11223.0", "census_tract_id": 36047038800, "community_district_id": "315", "city_council_district_id": "47", "school_district_id": "21", "ntaid": "BK25" }, "geometry": { "type": "Point", "coordinates": [ -73.968393570746841, 40.593185765762279 ] } },
{ "type": "Feature", "properties": { "name": "NYCDFTA: DFTA Contracts", "poi_type": "Senior Centers", "address": "1960 East    7 Street,Brooklyn,11223.0", "census_tract_id": 36047041800, "community_district_id": "315", "city_council_district_id": "47", "school_district_id": "21", "ntaid": "BK25" }, "geometry": { "type": "Point", "coordinates": [ -73.96531057115412, 40.602818763761142 ] } },
{ "type": "Feature", "properties": { "name": "NYCHHS: HHS Accelerator - Selected Proposals", "poi_type": "Universal Pre K", "address": "1901 Ocean Parkway,Brooklyn,11223.0", "census_tract_id": 36047041600, "community_district_id": "315", "city_council_district_id": "47", "school_district_id": "21", "ntaid": "BK25" }, "geometry": { "type": "Point", "coordinates": [ -73.965419571153831, 40.602243763877951 ] } },
{ "type": "Feature", "properties": { "name": "NYCDOE: Universal Pre-K (UPK) School Locations;NYCDOHMH: DOHMH Childcare Center Inspections", "poi_type": "Universal Pre K", "address": "1901 Ocean Parkway,Brooklyn,11223.0", "census_tract_id": 36047041600, "community_district_id": "315", "city_council_district_id": "47", "school_district_id": "21", "ntaid": "BK25" }, "geometry": { "type": "Point", "coordinates": [ -73.965419571153831, 40.602243763877951 ] } },
{ "type": "Feature", "properties": { "name": "NYCDCAS: City Owned and Leased Properties;NYCDOE: Universal Pre-K (UPK) School Locations", "poi_type": "Universal Pre K", "address": "415 Avenue S,Brooklyn,11223.0", "census_tract_id": 36047041401, "community_district_id": "315", "city_council_district_id": "47", "school_district_id": "21", "ntaid": "BK25" }, "geometry": { "type": "Point", "coordinates": [ -73.970018569672234, 40.602411764005602 ] } },
{ "type": "Feature", "properties": { "name": "NYCDCAS: City Owned and Leased Properties;NYCDOE: LCGMS - DOE School Information Report", "poi_type": "Public K12", "address": "415 Avenue S,Brooklyn,11223.0", "census_tract_id": 36047041401, "community_district_id": "315", "city_council_district_id": "47", "school_district_id": "21", "ntaid": "BK25" }, "geometry": { "type": "Point", "coordinates": [ -73.970018569672234, 40.602411764005602 ] } },
{ "type": "Feature", "properties": { "name": "NYCDOE: Universal Pre-K (UPK) School Locations;NYCDOHMH: DOHMH Childcare Center Inspections", "poi_type": "Universal Pre K", "address": "2166 Coney Island Avenue,Brooklyn,11223.0", "census_tract_id": 36047041600, "community_district_id": "315", "city_council_district_id": "48", "school_district_id": "21", "ntaid": "BK25" }, "geometry": { "type": "Point", "coordinates": [ -73.962187572079898, 40.604040763411909 ] } },
{ "type": "Feature", "properties": { "name": "NYCDOE: Universal Pre-K (UPK) School Locations", "poi_type": "Universal Pre K", "address": "2166 Coney Island Avenue,Brooklyn,11223.0", "census_tract_id": 36047041600, "community_district_id": "315", "city_council_district_id": "48", "school_district_id": "21", "ntaid": "BK25" }, "geometry": { "type": "Point", "coordinates": [ -73.962187572079898, 40.604040763411909 ] } },
{ "type": "Feature", "properties": { "name": "NYCDCAS: City Owned and Leased Properties;NYCDOE: Universal Pre-K (UPK) School Locations", "poi_type": "Universal Pre K", "address": "1215 Avenue X,Brooklyn,11229.0", "census_tract_id": 36047058400, "community_district_id": "315", "city_council_district_id": "48", "school_district_id": "21", "ntaid": "BK25" }, "geometry": { "type": "Point", "coordinates": [ -73.958527573965128, 40.592157765619838 ] } },
{ "type": "Feature", "properties": { "name": "NYCDCAS: City Owned and Leased Properties;NYCOMB: District Resource Statement", "poi_type": "Libraries", "address": "2525 Coney Island Avenue,Brooklyn,11223.0", "census_tract_id": 36047058400, "community_district_id": "315", "city_council_district_id": "48", "school_district_id": "21", "ntaid": "BK25" }, "geometry": { "type": "Point", "coordinates": [ -73.960600573117574, 40.595224765089306 ] } },
{ "type": "Feature", "properties": { "name": "NYCDCAS: City Owned and Leased Properties;NYCDOE: Universal Pre-K (UPK) School Locations", "poi_type": "Universal Pre K", "address": "1970 Homecrest Avenue,Brooklyn,11229.0", "census_tract_id": 36047055600, "community_district_id": "315", "city_council_district_id": "48", "school_district_id": "21", "ntaid": "BK25" }, "geometry": { "type": "Point", "coordinates": [ -73.960023572944962, 40.601168763900802 ] } },
{ "type": "Feature", "properties": { "name": "NYCDOE: Universal Pre-K (UPK) School Locations;NYCDOHMH: DOHMH Childcare Center Inspections", "poi_type": "Universal Pre K", "address": "1981 Homecrest Avenue,Brooklyn,11229.0", "census_tract_id": 36047055600, "community_district_id": "315", "city_council_district_id": "48", "school_district_id": "21", "ntaid": "BK25" }, "geometry": { "type": "Point", "coordinates": [ -73.959464573120471, 40.601224763870249 ] } },
{ "type": "Feature", "properties": { "name": "NYCDCAS: City Owned and Leased Properties;NYCDOE: LCGMS - DOE School Information Report", "poi_type": "Public K12", "address": "1970 Homecrest Avenue,Brooklyn,11229.0", "census_tract_id": 36047055600, "community_district_id": "315", "city_council_district_id": "48", "school_district_id": "21", "ntaid": "BK25" }, "geometry": { "type": "Point", "coordinates": [ -73.960023572944962, 40.601168763900802 ] } },
{ "type": "Feature", "properties": { "name": "NYCDOE: Universal Pre-K (UPK) School Locations;NYCDOHMH: DOHMH Childcare Center Inspections", "poi_type": "Universal Pre K", "address": "1018 Avenue Y,Brooklyn,11235.0", "census_tract_id": 36047058800, "community_district_id": "315", "city_council_district_id": "48", "school_district_id": "21", "ntaid": "BK25" }, "geometry": { "type": "Point", "coordinates": [ -73.959851573715497, 40.589261766235452 ] } },
{ "type": "Feature", "properties": { "name": "JGB Mental Health and Mental Retardation Svcs", "poi_type": "Mental Health Orgs", "address": "1630 East 15th Street,BROOKLYN,11229", "census_tract_id": 36047055400, "community_district_id": "315", "city_council_district_id": "48", "school_district_id": "21", "ntaid": "BK25" }, "geometry": { "type": "Point", "coordinates": [ -73.958470258399899, 40.609688269 ] } },
{ "type": "Feature", "properties": { "name": "LSA Recovery Inc", "poi_type": "Mental Health Orgs", "address": "1664 East 14th Street,Brooklyn,11229", "census_tract_id": 36047055400, "community_district_id": "315", "city_council_district_id": "48", "school_district_id": "21", "ntaid": "BK25" }, "geometry": { "type": "Point", "coordinates": [ -73.9592576, 40.608788 ] } },
{ "type": "Feature", "properties": { "name": "NYCDFTA: DFTA Contracts", "poi_type": "Senior Centers", "address": "485 Kings Highway,Brooklyn,11223.0", "census_tract_id": 36047042200, "community_district_id": "315", "city_council_district_id": "44", "school_district_id": "21", "ntaid": "BK25" }, "geometry": { "type": "Point", "coordinates": [ -73.971535569061885, 40.6044897636502 ] } },
{ "type": "Feature", "properties": { "name": "NYCDCAS: City Owned and Leased Properties;NYCDFTA: DFTA Contracts", "poi_type": "Senior Centers", "address": "1001 Quentin Road,Brooklyn,11223.0", "census_tract_id": 36047042000, "community_district_id": "315", "city_council_district_id": "44", "school_district_id": "21", "ntaid": "BK25" }, "geometry": { "type": "Point", "coordinates": [ -73.96281657163955, 40.608016762652504 ] } },
{ "type": "Feature", "properties": { "name": "NYCDCAS: City Owned and Leased Properties;NYCDOE: Universal Pre-K (UPK) School Locations", "poi_type": "Universal Pre K", "address": "1633 East    8 Street,Brooklyn,11223.0", "census_tract_id": 36047042000, "community_district_id": "315", "city_council_district_id": "44", "school_district_id": "21", "ntaid": "BK25" }, "geometry": { "type": "Point", "coordinates": [ -73.964615571018328, 40.608774762566384 ] } },
{ "type": "Feature", "properties": { "name": "NYCDCAS: City Owned and Leased Properties;NYCDOE: LCGMS - DOE School Information Report", "poi_type": "Public K12", "address": "1633 East    8 Street,Brooklyn,11223.0", "census_tract_id": 36047042000, "community_district_id": "315", "city_council_district_id": "44", "school_district_id": "21", "ntaid": "BK25" }, "geometry": { "type": "Point", "coordinates": [ -73.964615571018328, 40.608774762566384 ] } },
{ "type": "Feature", "properties": { "name": "Jewish Board of Family\/Childrens Servs", "poi_type": "Mental Health Orgs", "address": "2020 Coney Island Avenue,Brooklyn,11223", "census_tract_id": 36047042000, "community_district_id": "315", "city_council_district_id": "44", "school_district_id": "21", "ntaid": "BK25" }, "geometry": { "type": "Point", "coordinates": [ -73.9623568, 40.6080485 ] } },
{ "type": "Feature", "properties": { "name": "Jewish Board", "poi_type": "Mental Health Orgs", "address": "2020 Coney Island Avenue,Brooklyn,11223", "census_tract_id": 36047042000, "community_district_id": "315", "city_council_district_id": "44", "school_district_id": "21", "ntaid": "BK25" }, "geometry": { "type": "Point", "coordinates": [ -73.962354, 40.608036 ] } },
{ "type": "Feature", "properties": { "name": "Jewish Board of Family\/Childrens Servs", "poi_type": "Mental Health Orgs", "address": "2020 Coney Island Avenue,Brooklyn,11223", "census_tract_id": 36047042000, "community_district_id": "315", "city_council_district_id": "44", "school_district_id": "21", "ntaid": "BK25" }, "geometry": { "type": "Point", "coordinates": [ -73.962354, 40.608036 ] } },
{ "type": "Feature", "properties": { "name": "St. Athanasius School", "poi_type": "Community Schools", "address": "6120 Bay Parkway,Brooklyn,11204.0", "census_tract_id": 36047024600, "community_district_id": "311", "city_council_district_id": "47", "school_district_id": "21", "ntaid": "BK88" }, "geometry": { "type": "Point", "coordinates": [ -73.979756565742036, 40.615945761686554 ] } },
{ "type": "Feature", "properties": { "name": "NYCDOE: Universal Pre-K (UPK) School Locations;NYCDOHMH: DOHMH Childcare Center Inspections", "poi_type": "Universal Pre K", "address": "6120 Bay Parkway,Brooklyn,11204.0", "census_tract_id": 36047024600, "community_district_id": "311", "city_council_district_id": "47", "school_district_id": "21", "ntaid": "BK88" }, "geometry": { "type": "Point", "coordinates": [ -73.979756565742036, 40.615945761686554 ] } },
{ "type": "Feature", "properties": { "name": "St. Athanasius School", "poi_type": "Community centers and schools", "address": "6120 Bay Parkway,Brooklyn,11204.0", "census_tract_id": 36047024600, "community_district_id": "311", "city_council_district_id": "47", "school_district_id": "21", "ntaid": "BK88" }, "geometry": { "type": "Point", "coordinates": [ -73.979756565742036, 40.615945761686554 ] } },
{ "type": "Feature", "properties": { "name": "NYCHHS: HHS Accelerator - Selected Proposals", "poi_type": "Universal Pre K", "address": "5302 21 Avenue,Brooklyn,11204.0", "census_tract_id": 36047046400, "community_district_id": "312", "city_council_district_id": "44", "school_district_id": "21", "ntaid": "BK88" }, "geometry": { "type": "Point", "coordinates": [ -73.977010566258272, 40.621964760408133 ] } },
{ "type": "Feature", "properties": { "name": "NYCDOE: Universal Pre-K (UPK) School Locations;NYCDOHMH: DOHMH Childcare Center Inspections", "poi_type": "Universal Pre K", "address": "1975 51 Street,Brooklyn,11204.0", "census_tract_id": 36047046400, "community_district_id": "312", "city_council_district_id": "44", "school_district_id": "21", "ntaid": "BK88" }, "geometry": { "type": "Point", "coordinates": [ -73.97771456586635, 40.624731759889237 ] } },
{ "type": "Feature", "properties": { "name": "NYCDOE: Universal Pre-K (UPK) School Locations", "poi_type": "Universal Pre K", "address": "5301 20 Avenue,Brooklyn,11204.0", "census_tract_id": 36047046400, "community_district_id": "312", "city_council_district_id": "44", "school_district_id": "21", "ntaid": "BK88" }, "geometry": { "type": "Point", "coordinates": [ -73.978767565641164, 40.622875760290633 ] } },
{ "type": "Feature", "properties": { "name": "NYCDOE: Universal Pre-K (UPK) School Locations;NYCDOHMH: DOHMH Childcare Center Inspections", "poi_type": "Universal Pre K", "address": "5302 21 Avenue,Brooklyn,11204.0", "census_tract_id": 36047046400, "community_district_id": "312", "city_council_district_id": "44", "school_district_id": "21", "ntaid": "BK88" }, "geometry": { "type": "Point", "coordinates": [ -73.977010566258272, 40.621964760408133 ] } },
{ "type": "Feature", "properties": { "name": "NYCHHS: HHS Accelerator - Selected Proposals", "poi_type": "Universal Pre K", "address": "1975 51 Street,Brooklyn,11204.0", "census_tract_id": 36047046400, "community_district_id": "312", "city_council_district_id": "44", "school_district_id": "21", "ntaid": "BK88" }, "geometry": { "type": "Point", "coordinates": [ -73.97771456586635, 40.624731759889237 ] } },
{ "type": "Feature", "properties": { "name": "NYCDOE: LCGMS - DOE School Information Report", "poi_type": "Public K12", "address": "5301 20 Avenue,Brooklyn,11204.0", "census_tract_id": 36047046400, "community_district_id": "312", "city_council_district_id": "44", "school_district_id": "21", "ntaid": "BK88" }, "geometry": { "type": "Point", "coordinates": [ -73.978767565641164, 40.622875760290633 ] } },
{ "type": "Feature", "properties": { "name": "NYCDOE: Universal Pre-K (UPK) School Locations;NYCDOHMH: DOHMH Childcare Center Inspections", "poi_type": "Universal Pre K", "address": "1801 55 Street,Brooklyn,11204.0", "census_tract_id": 36047047000, "community_district_id": "312", "city_council_district_id": "44", "school_district_id": "21", "ntaid": "BK88" }, "geometry": { "type": "Point", "coordinates": [ -73.984049563832059, 40.624849760087614 ] } },
{ "type": "Feature", "properties": { "name": "NYCDOE: Universal Pre-K (UPK) School Locations", "poi_type": "Universal Pre K", "address": "2202 60 Street,Brooklyn,11204.0", "census_tract_id": 36047044600, "community_district_id": "312", "city_council_district_id": "44", "school_district_id": "21", "ntaid": "BK88" }, "geometry": { "type": "Point", "coordinates": [ -73.978230566218826, 40.616136761595683 ] } },
{ "type": "Feature", "properties": { "name": "NYCDCAS: City Owned and Leased Properties;NYCDOE: Universal Pre-K (UPK) School Locations", "poi_type": "Universal Pre K", "address": "6006 23 Avenue,Brooklyn,11204.0", "census_tract_id": 36047044600, "community_district_id": "312", "city_council_district_id": "44", "school_district_id": "21", "ntaid": "BK88" }, "geometry": { "type": "Point", "coordinates": [ -73.976954566677264, 40.615303761714735 ] } },
{ "type": "Feature", "properties": { "name": "NYCDCAS: City Owned and Leased Properties;NYCDOE: LCGMS - DOE School Information Report", "poi_type": "Public K12", "address": "6006 23 Avenue,Brooklyn,11204.0", "census_tract_id": 36047044600, "community_district_id": "312", "city_council_district_id": "44", "school_district_id": "21", "ntaid": "BK88" }, "geometry": { "type": "Point", "coordinates": [ -73.976954566677264, 40.615303761714735 ] } },
{ "type": "Feature", "properties": { "name": "NYCDCAS: City Owned and Leased Properties;NYCOMB: District Resource Statement", "poi_type": "Libraries", "address": "5902 23 Avenue,Brooklyn,11204.0", "census_tract_id": 36047044600, "community_district_id": "312", "city_council_district_id": "44", "school_district_id": "21", "ntaid": "BK88" }, "geometry": { "type": "Point", "coordinates": [ -73.976040566933591, 40.615903761564901 ] } },
{ "type": "Feature", "properties": { "name": "NYCHHS: HHS Accelerator - Selected Proposals", "poi_type": "Universal Pre K", "address": "5814 Ft Hamilton Parkway,Brooklyn,11219.0", "census_tract_id": 36047011600, "community_district_id": "312", "city_council_district_id": "38", "school_district_id": "20", "ntaid": "BK88" }, "geometry": { "type": "Point", "coordinates": [ -74.004815556639713, 40.63393175903083 ] } },
{ "type": "Feature", "properties": { "name": "NYCDOE: Universal Pre-K (UPK) School Locations;NYCDOHMH: DOHMH Childcare Center Inspections", "poi_type": "Universal Pre K", "address": "928 55 Street,Brooklyn,11219.0", "census_tract_id": 36047011600, "community_district_id": "312", "city_council_district_id": "38", "school_district_id": "20", "ntaid": "BK88" }, "geometry": { "type": "Point", "coordinates": [ -74.003799556815423, 40.636407758509101 ] } },
{ "type": "Feature", "properties": { "name": "NYCDCAS: City Owned and Leased Properties;NYCDOE: LCGMS - DOE School Information Report", "poi_type": "Public K12", "address": "1031 59 Street,Brooklyn,11219.0", "census_tract_id": 36047021400, "community_district_id": "312", "city_council_district_id": "38", "school_district_id": "20", "ntaid": "BK88" }, "geometry": { "type": "Point", "coordinates": [ -74.003526557094517, 40.633229759123516 ] } },
{ "type": "Feature", "properties": { "name": "Kadimah Pros", "poi_type": "Mental Health Orgs", "address": "6023 Fort Hamilton Parkway,Brooklyn,11219", "census_tract_id": 36047021400, "community_district_id": "312", "city_council_district_id": "38", "school_district_id": "20", "ntaid": "BK88" }, "geometry": { "type": "Point", "coordinates": [ -74.006063, 40.632725 ] } },
{ "type": "Feature", "properties": { "name": "Maimonides Medical Center", "poi_type": "Mental Health Orgs", "address": "920 48th Street,Brooklyn,11219", "census_tract_id": 36047011400, "community_district_id": "312", "city_council_district_id": "38", "school_district_id": "20", "ntaid": "BK88" }, "geometry": { "type": "Point", "coordinates": [ -73.999632, 40.640394 ] } },
{ "type": "Feature", "properties": { "name": "Masbia Of Boro Park", "poi_type": "Faith Based Organizations", "address": "1276 47th St,Brooklyn,NY,11219-", "census_tract_id": 36047021800, "community_district_id": "312", "city_council_district_id": "44", "school_district_id": "20", "ntaid": "BK88" }, "geometry": { "type": "Point", "coordinates": [ -73.996953, 40.633157 ] } },
{ "type": "Feature", "properties": { "name": "St. Augustine's Helping Hands Food Pantry", "poi_type": "Faith Based Organizations", "address": "928 44th Street,Brooklyn,NY,11219", "census_tract_id": 36047021800, "community_district_id": "312", "city_council_district_id": "44", "school_district_id": "20", "ntaid": "BK88" }, "geometry": { "type": "Point", "coordinates": [ -73.996953, 40.633157 ] } },
{ "type": "Feature", "properties": { "name": "NYCHHS: HHS Accelerator - Selected Proposals", "poi_type": "Universal Pre K", "address": "5202 13 Avenue,Brooklyn,11219.0", "census_tract_id": 36047021800, "community_district_id": "312", "city_council_district_id": "44", "school_district_id": "20", "ntaid": "BK88" }, "geometry": { "type": "Point", "coordinates": [ -73.994230560060018, 40.633380758768475 ] } },
{ "type": "Feature", "properties": { "name": "Jewish Board of Family\/Childrens Servs", "poi_type": "Mental Health Orgs", "address": "1273 53rd Street,Brooklyn,11219", "census_tract_id": 36047021800, "community_district_id": "312", "city_council_district_id": "44", "school_district_id": "20", "ntaid": "BK88" }, "geometry": { "type": "Point", "coordinates": [ -73.994805, 40.633017 ] } },
{ "type": "Feature", "properties": { "name": "Ohel Childrens Home Family Servs Inc", "poi_type": "Mental Health Orgs", "address": "5211 Fort Hamilton Parkway,Brooklyn,11219", "census_tract_id": 36047021800, "community_district_id": "312", "city_council_district_id": "44", "school_district_id": "20", "ntaid": "BK88" }, "geometry": { "type": "Point", "coordinates": [ -73.999863, 40.636548 ] } },
{ "type": "Feature", "properties": { "name": "African Services Committee", "poi_type": "Community Based Organizations", "address": "444 Beach 6th St.,Brooklyn,11219", "census_tract_id": 36047021800, "community_district_id": "312", "city_council_district_id": "44", "school_district_id": "20", "ntaid": "BK88" }, "geometry": { "type": "Point", "coordinates": [ -73.996953, 40.633157 ] } },
{ "type": "Feature", "properties": { "name": "Hour Children Community Outreach and Food Pantry", "poi_type": "Community Based Organizations", "address": "5402 New Utrecht,Brooklyn,11219", "census_tract_id": 36047021800, "community_district_id": "312", "city_council_district_id": "44", "school_district_id": "20", "ntaid": "BK88" }, "geometry": { "type": "Point", "coordinates": [ -73.996953, 40.633157 ] } },
{ "type": "Feature", "properties": { "name": "Little Brilliant Minds Inc", "poi_type": "Community Schools", "address": "5916 20 Avenue,Brooklyn,11204.0", "census_tract_id": 36047024400, "community_district_id": "312", "city_council_district_id": "44", "school_district_id": "20", "ntaid": "BK88" }, "geometry": { "type": "Point", "coordinates": [ -73.982835564528955, 40.619729761050849 ] } },
{ "type": "Feature", "properties": { "name": "NYCDCAS: City Owned and Leased Properties;NYCDOE: Universal Pre-K (UPK) School Locations", "poi_type": "Universal Pre K", "address": "6015 18 Avenue,Brooklyn,11204.0", "census_tract_id": 36047024400, "community_district_id": "312", "city_council_district_id": "44", "school_district_id": "20", "ntaid": "BK88" }, "geometry": { "type": "Point", "coordinates": [ -73.987259563004855, 40.62153176085161 ] } },
{ "type": "Feature", "properties": { "name": "NYCDOE: Universal Pre-K (UPK) School Locations;NYCDOHMH: DOHMH Childcare Center Inspections", "poi_type": "Universal Pre K", "address": "1774 58 Street,Brooklyn,11204.0", "census_tract_id": 36047024400, "community_district_id": "312", "city_council_district_id": "44", "school_district_id": "20", "ntaid": "BK88" }, "geometry": { "type": "Point", "coordinates": [ -73.986447563163381, 40.623212760493004 ] } },
{ "type": "Feature", "properties": { "name": "NYCDOE: Universal Pre-K (UPK) School Locations;NYCDOHMH: DOHMH Childcare Center Inspections", "poi_type": "Universal Pre K", "address": "5916 20 Avenue,Brooklyn,11204.0", "census_tract_id": 36047024400, "community_district_id": "312", "city_council_district_id": "44", "school_district_id": "20", "ntaid": "BK88" }, "geometry": { "type": "Point", "coordinates": [ -73.982835564528955, 40.619729761050849 ] } },
{ "type": "Feature", "properties": { "name": "NYCDCAS: City Owned and Leased Properties;NYCDOE: LCGMS - DOE School Information Report", "poi_type": "Public K12", "address": "6015 18 Avenue,Brooklyn,11204.0", "census_tract_id": 36047024400, "community_district_id": "312", "city_council_district_id": "44", "school_district_id": "20", "ntaid": "BK88" }, "geometry": { "type": "Point", "coordinates": [ -73.987259563004855, 40.62153176085161 ] } },
{ "type": "Feature", "properties": { "name": "Little Brilliant Minds Inc", "poi_type": "Community centers and schools", "address": "5916 20 Avenue,Brooklyn,11204.0", "census_tract_id": 36047024400, "community_district_id": "312", "city_council_district_id": "44", "school_district_id": "20", "ntaid": "BK88" }, "geometry": { "type": "Point", "coordinates": [ -73.982835564528955, 40.619729761050849 ] } },
{ "type": "Feature", "properties": { "name": "NYCDCAS: City Owned and Leased Properties;NYCOMB: District Resource Statement", "poi_type": "Libraries", "address": "6001 17 Avenue,Brooklyn,11204.0", "census_tract_id": 36047024400, "community_district_id": "312", "city_council_district_id": "44", "school_district_id": "20", "ntaid": "BK88" }, "geometry": { "type": "Point", "coordinates": [ -73.989440562215208, 40.623054760628776 ] } },
{ "type": "Feature", "properties": { "name": "Mother Love", "poi_type": "Community Schools", "address": "1681 49 Street,Brooklyn,11204.0", "census_tract_id": 36047047400, "community_district_id": "312", "city_council_district_id": "44", "school_district_id": "20", "ntaid": "BK88" }, "geometry": { "type": "Point", "coordinates": [ -73.983406563726504, 40.630016759050342 ] } },
{ "type": "Feature", "properties": { "name": "NYCDOE: Universal Pre-K (UPK) School Locations;NYCDOHMH: DOHMH Childcare Center Inspections", "poi_type": "Universal Pre K", "address": "1681 49 Street,Brooklyn,11204.0", "census_tract_id": 36047047400, "community_district_id": "312", "city_council_district_id": "44", "school_district_id": "20", "ntaid": "BK88" }, "geometry": { "type": "Point", "coordinates": [ -73.983406563726504, 40.630016759050342 ] } },
{ "type": "Feature", "properties": { "name": "NYCHHS: HHS Accelerator - Selected Proposals", "poi_type": "Universal Pre K", "address": "1876 50 Street,Brooklyn,11204.0", "census_tract_id": 36047047400, "community_district_id": "312", "city_council_district_id": "44", "school_district_id": "20", "ntaid": "BK88" }, "geometry": { "type": "Point", "coordinates": [ -73.980095565006053, 40.626364759651764 ] } },
{ "type": "Feature", "properties": { "name": "Mother Love", "poi_type": "Community centers and schools", "address": "1681 49 Street,Brooklyn,11204.0", "census_tract_id": 36047047400, "community_district_id": "312", "city_council_district_id": "44", "school_district_id": "20", "ntaid": "BK88" }, "geometry": { "type": "Point", "coordinates": [ -73.983406563726504, 40.630016759050342 ] } },
{ "type": "Feature", "properties": { "name": "FBNYC: FBNYC Food Pantry Soup Kitchen List 8-5-16", "poi_type": "Food Kitches and Pantries", "address": "1712 45 Street,Brooklyn,11204.0", "census_tract_id": 36047047600, "community_district_id": "312", "city_council_district_id": "44", "school_district_id": "20", "ntaid": "BK88" }, "geometry": { "type": "Point", "coordinates": [ -73.980518564567262, 40.631400758677501 ] } },
{ "type": "Feature", "properties": { "name": "NYCDCAS: City Owned and Leased Properties;NYCDOE: Universal Pre-K (UPK) School Locations", "poi_type": "Universal Pre K", "address": "4715 18 Avenue,Brooklyn,11204.0", "census_tract_id": 36047047600, "community_district_id": "312", "city_council_district_id": "44", "school_district_id": "20", "ntaid": "BK88" }, "geometry": { "type": "Point", "coordinates": [ -73.979841564930268, 40.628971759130863 ] } },
{ "type": "Feature", "properties": { "name": "NYCDCAS: City Owned and Leased Properties;NYCDOE: Universal Pre-K (UPK) School Locations", "poi_type": "Universal Pre K", "address": "1668 46 Street,Brooklyn,11204.0", "census_tract_id": 36047047600, "community_district_id": "312", "city_council_district_id": "44", "school_district_id": "20", "ntaid": "BK88" }, "geometry": { "type": "Point", "coordinates": [ -73.982042564079038, 40.631409758729042 ] } },
{ "type": "Feature", "properties": { "name": "NYCDCAS: City Owned and Leased Properties;NYCDOE: LCGMS - DOE School Information Report", "poi_type": "Public K12", "address": "4715 18 Avenue,Brooklyn,11204.0", "census_tract_id": 36047047600, "community_district_id": "312", "city_council_district_id": "44", "school_district_id": "20", "ntaid": "BK88" }, "geometry": { "type": "Point", "coordinates": [ -73.979841564930268, 40.628971759130863 ] } },
{ "type": "Feature", "properties": { "name": "NYCDFTA: DFTA Contracts", "poi_type": "Senior Centers", "address": "4912 14 Avenue,Brooklyn,11219.0", "census_tract_id": 36047023600, "community_district_id": "312", "city_council_district_id": "44", "school_district_id": "20", "ntaid": "BK88" }, "geometry": { "type": "Point", "coordinates": [ -73.990577561223731, 40.633467758623524 ] } },
{ "type": "Feature", "properties": { "name": "NYCDOE: Universal Pre-K (UPK) School Locations;NYCDOHMH: DOHMH Childcare Center Inspections", "poi_type": "Universal Pre K", "address": "5000 14 Avenue,Brooklyn,11219.0", "census_tract_id": 36047023600, "community_district_id": "312", "city_council_district_id": "44", "school_district_id": "20", "ntaid": "BK88" }, "geometry": { "type": "Point", "coordinates": [ -73.9909385611316, 40.633079758712356 ] } },
{ "type": "Feature", "properties": { "name": "NYCDOE: Universal Pre-K (UPK) School Locations", "poi_type": "Universal Pre K", "address": "1363 50 Street,Brooklyn,11219.0", "census_tract_id": 36047023600, "community_district_id": "312", "city_council_district_id": "44", "school_district_id": "20", "ntaid": "BK88" }, "geometry": { "type": "Point", "coordinates": [ -73.990895561110989, 40.633649758598935 ] } },
{ "type": "Feature", "properties": { "name": "NYCDOE: Universal Pre-K (UPK) School Locations", "poi_type": "Universal Pre K", "address": "1349 \/ 53 50th St,Brooklyn,11219.0", "census_tract_id": 36047023600, "community_district_id": "312", "city_council_district_id": "44", "school_district_id": "20", "ntaid": "BK88" }, "geometry": { "type": "Point", "coordinates": [ -73.991200561002842, 40.633824758575216 ] } },
{ "type": "Feature", "properties": { "name": "NYCDCAS: City Owned and Leased Properties;NYCDFTA: DFTA Contracts", "poi_type": "Senior Centers", "address": "5901 13 Avenue,Brooklyn,11219.0", "census_tract_id": 36047019200, "community_district_id": "312", "city_council_district_id": "44", "school_district_id": "20", "ntaid": "BK88" }, "geometry": { "type": "Point", "coordinates": [ -73.997867559154912, 40.629090759738176 ] } },
{ "type": "Feature", "properties": { "name": "NYCDOE: Universal Pre-K (UPK) School Locations;NYCDOHMH: DOHMH Childcare Center Inspections", "poi_type": "Universal Pre K", "address": "5816 13 Avenue,Brooklyn,11219.0", "census_tract_id": 36047019200, "community_district_id": "312", "city_council_district_id": "44", "school_district_id": "20", "ntaid": "BK88" }, "geometry": { "type": "Point", "coordinates": [ -73.997948559092137, 40.629701759621049 ] } },
{ "type": "Feature", "properties": { "name": "NYCDFTA: DFTA Contracts", "poi_type": "Senior Centers", "address": "5602 11 Avenue,Brooklyn,11219.0", "census_tract_id": 36047021600, "community_district_id": "312", "city_council_district_id": "44", "school_district_id": "20", "ntaid": "BK88" }, "geometry": { "type": "Point", "coordinates": [ -74.0010375578603, 40.633737758936661 ] } },
{ "type": "Feature", "properties": { "name": "NYCDOE: Universal Pre-K (UPK) School Locations", "poi_type": "Universal Pre K", "address": "1273 57 Street,Brooklyn,11219.0", "census_tract_id": 36047021600, "community_district_id": "312", "city_council_district_id": "44", "school_district_id": "20", "ntaid": "BK88" }, "geometry": { "type": "Point", "coordinates": [ -73.996852559372854, 40.630862759354692 ] } },
{ "type": "Feature", "properties": { "name": "Brooklyn Counseling (Resource) Center Clinic", "poi_type": "Mental Health Orgs", "address": "1250 57th Street,BROOKLYN,11219", "census_tract_id": 36047021600, "community_district_id": "312", "city_council_district_id": "44", "school_district_id": "20", "ntaid": "BK88" }, "geometry": { "type": "Point", "coordinates": [ -73.997870784300005, 40.631195705300001 ] } },
{ "type": "Feature", "properties": { "name": "NYCDCAS: City Owned and Leased Properties;NYCDOE: Universal Pre-K (UPK) School Locations", "poi_type": "Universal Pre K", "address": "5601 16 Avenue,Brooklyn,11204.0", "census_tract_id": 36047047000, "community_district_id": "312", "city_council_district_id": "44", "school_district_id": "20", "ntaid": "BK88" }, "geometry": { "type": "Point", "coordinates": [ -73.989497561983384, 40.62659875993468 ] } },
{ "type": "Feature", "properties": { "name": "NYCDCAS: City Owned and Leased Properties;NYCDOE: LCGMS - DOE School Information Report", "poi_type": "Public K12", "address": "5601 16 Avenue,Brooklyn,11204.0", "census_tract_id": 36047047000, "community_district_id": "312", "city_council_district_id": "44", "school_district_id": "20", "ntaid": "BK88" }, "geometry": { "type": "Point", "coordinates": [ -73.989497561983384, 40.62659875993468 ] } },
{ "type": "Feature", "properties": { "name": "NYCDOE: Universal Pre-K (UPK) School Locations;NYCDOHMH: DOHMH Childcare Center Inspections", "poi_type": "Universal Pre K", "address": "4206 15 Avenue,Brooklyn,11219.0", "census_tract_id": 36047023200, "community_district_id": "312", "city_council_district_id": "44", "school_district_id": "20", "ntaid": "BK88" }, "geometry": { "type": "Point", "coordinates": [ -73.984078563137189, 40.636225757854582 ] } },
{ "type": "Feature", "properties": { "name": "NYCDCAS: City Owned and Leased Properties;NYCDOE: Universal Pre-K (UPK) School Locations", "poi_type": "Universal Pre K", "address": "4211 14 Avenue,Brooklyn,11219.0", "census_tract_id": 36047023200, "community_district_id": "312", "city_council_district_id": "44", "school_district_id": "20", "ntaid": "BK88" }, "geometry": { "type": "Point", "coordinates": [ -73.985824562522836, 40.637147757734631 ] } },
{ "type": "Feature", "properties": { "name": "NYCDOE: Universal Pre-K (UPK) School Locations;NYCDOHMH: DOHMH Childcare Center Inspections", "poi_type": "Universal Pre K", "address": "1371 46 Street,Brooklyn,11219.0", "census_tract_id": 36047023200, "community_district_id": "312", "city_council_district_id": "44", "school_district_id": "20", "ntaid": "BK88" }, "geometry": { "type": "Point", "coordinates": [ -73.988268561830097, 40.635665758111116 ] } },
{ "type": "Feature", "properties": { "name": "NYCDOE: Universal Pre-K (UPK) School Locations", "poi_type": "Universal Pre K", "address": "4511 14 Avenue,Brooklyn,11219.0", "census_tract_id": 36047023200, "community_district_id": "312", "city_council_district_id": "44", "school_district_id": "20", "ntaid": "BK88" }, "geometry": { "type": "Point", "coordinates": [ -73.987652562036985, 40.635503758121402 ] } },
{ "type": "Feature", "properties": { "name": "NYCDCAS: City Owned and Leased Properties;NYCDOE: LCGMS - DOE School Information Report", "poi_type": "Public K12", "address": "4211 14 Avenue,Brooklyn,11219.0", "census_tract_id": 36047023200, "community_district_id": "312", "city_council_district_id": "44", "school_district_id": "20", "ntaid": "BK88" }, "geometry": { "type": "Point", "coordinates": [ -73.985824562522836, 40.637147757734631 ] } },
{ "type": "Feature", "properties": { "name": "NYCDCAS: City Owned and Leased Properties;NYCDOE: LCGMS - DOE School Information Report", "poi_type": "Public K12", "address": "4200 16 Avenue,Brooklyn,11219.0", "census_tract_id": 36047023000, "community_district_id": "312", "city_council_district_id": "44", "school_district_id": "20", "ntaid": "BK88" }, "geometry": { "type": "Point", "coordinates": [ -73.982216563809914, 40.634950758039778 ] } },
{ "type": "Feature", "properties": { "name": "NYCDCAS: City Owned and Leased Properties;NYCDOE: LCGMS - DOE School Information Report", "poi_type": "Public K12", "address": "4200 16 Avenue,Brooklyn,11219.0", "census_tract_id": 36047023000, "community_district_id": "312", "city_council_district_id": "44", "school_district_id": "20", "ntaid": "BK88" }, "geometry": { "type": "Point", "coordinates": [ -73.982216563809914, 40.634950758039778 ] } },
{ "type": "Feature", "properties": { "name": "NYCDCAS: City Owned and Leased Properties;NYCDOE: LCGMS - DOE School Information Report", "poi_type": "Public K12", "address": "5800 20 Avenue,Brooklyn,11204.0", "census_tract_id": 36047046800, "community_district_id": "312", "city_council_district_id": "44", "school_district_id": "20", "ntaid": "BK88" }, "geometry": { "type": "Point", "coordinates": [ -73.982366564588617, 40.621230760739621 ] } },
{ "type": "Feature", "properties": { "name": "NYCDCAS: City Owned and Leased Properties;NYCDOE: LCGMS - DOE School Information Report", "poi_type": "Public K12", "address": "5105 Ft Hamilton Parkway,Brooklyn,11219.0", "census_tract_id": 36047022000, "community_district_id": "312", "city_council_district_id": "44", "school_district_id": "20", "ntaid": "BK88" }, "geometry": { "type": "Point", "coordinates": [ -73.99903655830866, 40.63691975824181 ] } },
{ "type": "Feature", "properties": { "name": "NYCDCAS: City Owned and Leased Properties;NYCDOE: LCGMS - DOE School Information Report", "poi_type": "Public K12", "address": "1057 52 Street,Brooklyn,11219.0", "census_tract_id": 36047022000, "community_district_id": "312", "city_council_district_id": "44", "school_district_id": "20", "ntaid": "BK88" }, "geometry": { "type": "Point", "coordinates": [ -73.998783558410778, 40.636568758301884 ] } },
{ "type": "Feature", "properties": { "name": "Sweet Home Day Care Center", "poi_type": "Community Schools", "address": "927 Mc Donald Avenue,Brooklyn,11218.0", "census_tract_id": 36047047800, "community_district_id": "314", "city_council_district_id": "44", "school_district_id": "20", "ntaid": "BK88" }, "geometry": { "type": "Point", "coordinates": [ -73.976876565731359, 40.631423758545615 ] } },
{ "type": "Feature", "properties": { "name": "NYCDOE: Universal Pre-K (UPK) School Locations;NYCDOHMH: DOHMH Childcare Center Inspections", "poi_type": "Universal Pre K", "address": "927 Mc Donald Avenue,Brooklyn,11218.0", "census_tract_id": 36047047800, "community_district_id": "314", "city_council_district_id": "44", "school_district_id": "20", "ntaid": "BK88" }, "geometry": { "type": "Point", "coordinates": [ -73.976876565731359, 40.631423758545615 ] } },
{ "type": "Feature", "properties": { "name": "Woodmere Day Care Center Inc", "poi_type": "Community centers and schools", "address": "927 Mc Donald Avenue,Brooklyn,11218.0", "census_tract_id": 36047047800, "community_district_id": "314", "city_council_district_id": "44", "school_district_id": "20", "ntaid": "BK88" }, "geometry": { "type": "Point", "coordinates": [ -73.976876565731359, 40.631423758545615 ] } },
{ "type": "Feature", "properties": { "name": "Gan Yisroel", "poi_type": "Community Schools", "address": "3909 15 Avenue,Brooklyn,11218.0", "census_tract_id": 36047022800, "community_district_id": "312", "city_council_district_id": "39", "school_district_id": "20", "ntaid": "BK88" }, "geometry": { "type": "Point", "coordinates": [ -73.981948563738527, 40.637557757518522 ] } },
{ "type": "Feature", "properties": { "name": "NYCDOE: Universal Pre-K (UPK) School Locations", "poi_type": "Universal Pre K", "address": "3909 15 Avenue,Brooklyn,11218.0", "census_tract_id": 36047022800, "community_district_id": "312", "city_council_district_id": "39", "school_district_id": "20", "ntaid": "BK88" }, "geometry": { "type": "Point", "coordinates": [ -73.981948563738527, 40.637557757518522 ] } },
{ "type": "Feature", "properties": { "name": "NYCDOE: Universal Pre-K (UPK) School Locations;NYCDOHMH: DOHMH Childcare Center Inspections", "poi_type": "Universal Pre K", "address": "1449 39 Street,Brooklyn,11218.0", "census_tract_id": 36047022800, "community_district_id": "312", "city_council_district_id": "39", "school_district_id": "20", "ntaid": "BK88" }, "geometry": { "type": "Point", "coordinates": [ -73.982740563411284, 40.638781757305892 ] } },
{ "type": "Feature", "properties": { "name": "Gan Yisroel", "poi_type": "Community centers and schools", "address": "3909 15 Avenue,Brooklyn,11218.0", "census_tract_id": 36047022800, "community_district_id": "312", "city_council_district_id": "39", "school_district_id": "20", "ntaid": "BK88" }, "geometry": { "type": "Point", "coordinates": [ -73.981948563738527, 40.637557757518522 ] } },
{ "type": "Feature", "properties": { "name": "FBNYC: FBNYC Food Pantry Soup Kitchen List 8-5-16", "poi_type": "Food Kitches and Pantries", "address": "1601 41 Street,Brooklyn,11218.0", "census_tract_id": 36047047800, "community_district_id": "312", "city_council_district_id": "39", "school_district_id": "20", "ntaid": "BK88" }, "geometry": { "type": "Point", "coordinates": [ -73.98057056430055, 40.635549757864588 ] } },
{ "type": "Feature", "properties": { "name": "NYCDOE: Universal Pre-K (UPK) School Locations;NYCDOHMH: DOHMH Childcare Center Inspections", "poi_type": "Universal Pre K", "address": "1360 42 Street,Brooklyn,11219.0", "census_tract_id": 36047023200, "community_district_id": "312", "city_council_district_id": "39", "school_district_id": "20", "ntaid": "BK88" }, "geometry": { "type": "Point", "coordinates": [ -73.986656562214023, 40.637853757625116 ] } },
{ "type": "Feature", "properties": { "name": "NYCDOE: Universal Pre-K (UPK) School Locations;NYCDOHMH: DOHMH Childcare Center Inspections", "poi_type": "Universal Pre K", "address": "1377 42 Street,Brooklyn,11219.0", "census_tract_id": 36047023200, "community_district_id": "312", "city_council_district_id": "39", "school_district_id": "20", "ntaid": "BK88" }, "geometry": { "type": "Point", "coordinates": [ -73.985956562438702, 40.637842757602755 ] } },
{ "type": "Feature", "properties": { "name": "NYCHHS: HHS Accelerator - Selected Proposals", "poi_type": "Universal Pre K", "address": "1205 44 Street,Brooklyn,11219.0", "census_tract_id": 36047022400, "community_district_id": "312", "city_council_district_id": "39", "school_district_id": "15", "ntaid": "BK88" }, "geometry": { "type": "Point", "coordinates": [ -73.990984560750363, 40.639157757520564 ] } },
{ "type": "Feature", "properties": { "name": "NYCDOE: Universal Pre-K (UPK) School Locations;NYCDOHMH: DOHMH Childcare Center Inspections", "poi_type": "Universal Pre K", "address": "1205 44 Street,Brooklyn,11219.0", "census_tract_id": 36047022400, "community_district_id": "312", "city_council_district_id": "39", "school_district_id": "15", "ntaid": "BK88" }, "geometry": { "type": "Point", "coordinates": [ -73.990984560750363, 40.639157757520564 ] } },
{ "type": "Feature", "properties": { "name": "NYCDCAS: City Owned and Leased Properties;NYCDOE: Universal Pre-K (UPK) School Locations", "poi_type": "Universal Pre K", "address": "4305 Ft Hamilton Parkway,Brooklyn,11219.0", "census_tract_id": 36047022400, "community_district_id": "312", "city_council_district_id": "39", "school_district_id": "15", "ntaid": "BK88" }, "geometry": { "type": "Point", "coordinates": [ -73.993145559971808, 40.640599757313076 ] } },
{ "type": "Feature", "properties": { "name": "NYCDOE: Universal Pre-K (UPK) School Locations", "poi_type": "Universal Pre K", "address": "1169 43 Street,Brooklyn,11219.0", "census_tract_id": 36047022400, "community_district_id": "312", "city_council_district_id": "39", "school_district_id": "15", "ntaid": "BK88" }, "geometry": { "type": "Point", "coordinates": [ -73.991288560587265, 40.640248757317003 ] } },
{ "type": "Feature", "properties": { "name": "NYCDCAS: City Owned and Leased Properties;NYCDOE: LCGMS - DOE School Information Report", "poi_type": "Public K12", "address": "4305 Ft Hamilton Parkway,Brooklyn,11219.0", "census_tract_id": 36047022400, "community_district_id": "312", "city_council_district_id": "39", "school_district_id": "15", "ntaid": "BK88" }, "geometry": { "type": "Point", "coordinates": [ -73.993145559971808, 40.640599757313076 ] } },
{ "type": "Feature", "properties": { "name": "NYCDCAS: City Owned and Leased Properties;NYCOMB: District Resource Statement", "poi_type": "Libraries", "address": "1265 43 Street,Brooklyn,11219.0", "census_tract_id": 36047022400, "community_district_id": "312", "city_council_district_id": "39", "school_district_id": "15", "ntaid": "BK88" }, "geometry": { "type": "Point", "coordinates": [ -73.98900856140007, 40.638869757507926 ] } },
{ "type": "Feature", "properties": { "name": "NYCHHS: HHS Accelerator - Selected Proposals", "poi_type": "Universal Pre K", "address": "1257 38 Street,Brooklyn,11218.0", "census_tract_id": 36047022600, "community_district_id": "312", "city_council_district_id": "39", "school_district_id": "15", "ntaid": "BK88" }, "geometry": { "type": "Point", "coordinates": [ -73.986117562148863, 40.64179475683251 ] } },
{ "type": "Feature", "properties": { "name": "NYCDCAS: City Owned and Leased Properties;NYCDOE: LCGMS - DOE School Information Report", "poi_type": "Public K12", "address": "8310 21 Avenue,Brooklyn,11214.0", "census_tract_id": 36047028800, "community_district_id": "311", "city_council_district_id": "47", "school_district_id": "21", "ntaid": "BK28" }, "geometry": { "type": "Point", "coordinates": [ -73.995079561499281, 40.604986764375617 ] } },
{ "type": "Feature", "properties": { "name": "NYCDCAS: City Owned and Leased Properties;NYCDOE: LCGMS - DOE School Information Report", "poi_type": "Public K12", "address": "2075 84 Street,Brooklyn,11214.0", "census_tract_id": 36047028800, "community_district_id": "311", "city_council_district_id": "47", "school_district_id": "21", "ntaid": "BK28" }, "geometry": { "type": "Point", "coordinates": [ -73.995079561499281, 40.604986764375617 ] } },
{ "type": "Feature", "properties": { "name": "Little Sunshine Preschool", "poi_type": "Community Schools", "address": "1815 85 Street,Brooklyn,11214.0", "census_tract_id": 36047027800, "community_district_id": "311", "city_council_district_id": "47", "school_district_id": "20", "ntaid": "BK28" }, "geometry": { "type": "Point", "coordinates": [ -74.001426559299077, 40.607803764044135 ] } },
{ "type": "Feature", "properties": { "name": "NYCDOE: Universal Pre-K (UPK) School Locations;NYCDOHMH: DOHMH Childcare Center Inspections", "poi_type": "Universal Pre K", "address": "1815 85 Street,Brooklyn,11214.0", "census_tract_id": 36047027800, "community_district_id": "311", "city_council_district_id": "47", "school_district_id": "20", "ntaid": "BK28" }, "geometry": { "type": "Point", "coordinates": [ -74.001426559299077, 40.607803764044135 ] } },
{ "type": "Feature", "properties": { "name": "Little Sunshine Inc.", "poi_type": "Community centers and schools", "address": "1815 85 Street,Brooklyn,11214.0", "census_tract_id": 36047027800, "community_district_id": "311", "city_council_district_id": "47", "school_district_id": "20", "ntaid": "BK28" }, "geometry": { "type": "Point", "coordinates": [ -74.001426559299077, 40.607803764044135 ] } },
{ "type": "Feature", "properties": { "name": "FBNYC: FBNYC Food Pantry Soup Kitchen List 8-5-16", "poi_type": "Food Kitches and Pantries", "address": "8635 21 Avenue,Brooklyn,11214.0", "census_tract_id": 36047029000, "community_district_id": "311", "city_council_district_id": "47", "school_district_id": "20", "ntaid": "BK28" }, "geometry": { "type": "Point", "coordinates": [ -73.99659656117143, 40.602371764942532 ] } },
{ "type": "Feature", "properties": { "name": "NYCDFTA: DFTA Contracts", "poi_type": "Senior Centers", "address": "7711 18 Avenue,Brooklyn,11214.0", "census_tract_id": 36047027400, "community_district_id": "311", "city_council_district_id": "47", "school_district_id": "20", "ntaid": "BK28" }, "geometry": { "type": "Point", "coordinates": [ -73.997130560430691, 40.611834763101854 ] } },
{ "type": "Feature", "properties": { "name": "NYCDCAS: City Owned and Leased Properties;NYCDOE: Universal Pre-K (UPK) School Locations", "poi_type": "Universal Pre K", "address": "7601 19 Avenue,Brooklyn,11214.0", "census_tract_id": 36047027400, "community_district_id": "311", "city_council_district_id": "47", "school_district_id": "20", "ntaid": "BK28" }, "geometry": { "type": "Point", "coordinates": [ -73.994553561300052, 40.611089763158049 ] } },
{ "type": "Feature", "properties": { "name": "NYCDCAS: City Owned and Leased Properties;NYCDOE: LCGMS - DOE School Information Report", "poi_type": "Public K12", "address": "7601 19 Avenue,Brooklyn,11214.0", "census_tract_id": 36047027400, "community_district_id": "311", "city_council_district_id": "47", "school_district_id": "20", "ntaid": "BK28" }, "geometry": { "type": "Point", "coordinates": [ -73.994553561300052, 40.611089763158049 ] } },
{ "type": "Feature", "properties": { "name": "NYCDOE: Universal Pre-K (UPK) School Locations;NYCDOHMH: DOHMH Childcare Center Inspections", "poi_type": "Universal Pre K", "address": "6709 19 Avenue,Brooklyn,11204.0", "census_tract_id": 36047025600, "community_district_id": "311", "city_council_district_id": "47", "school_district_id": "20", "ntaid": "BK28" }, "geometry": { "type": "Point", "coordinates": [ -73.989296562667747, 40.616307761949045 ] } },
{ "type": "Feature", "properties": { "name": "NYCDCAS: City Owned and Leased Properties;NYCDOE: Universal Pre-K (UPK) School Locations", "poi_type": "Universal Pre K", "address": "6701 20 Avenue,Brooklyn,11204.0", "census_tract_id": 36047025600, "community_district_id": "311", "city_council_district_id": "47", "school_district_id": "20", "ntaid": "BK28" }, "geometry": { "type": "Point", "coordinates": [ -73.986977563498641, 40.61483176215792 ] } },
{ "type": "Feature", "properties": { "name": "NYCDCAS: City Owned and Leased Properties;NYCDOE: LCGMS - DOE School Information Report", "poi_type": "Public K12", "address": "6701 20 Avenue,Brooklyn,11204.0", "census_tract_id": 36047025600, "community_district_id": "311", "city_council_district_id": "47", "school_district_id": "20", "ntaid": "BK28" }, "geometry": { "type": "Point", "coordinates": [ -73.986977563498641, 40.61483176215792 ] } },
{ "type": "Feature", "properties": { "name": "NYCDCAS: City Owned and Leased Properties;NYCDOE: Universal Pre-K (UPK) School Locations", "poi_type": "Universal Pre K", "address": "7000 21 Avenue,Brooklyn,11204.0", "census_tract_id": 36047025800, "community_district_id": "311", "city_council_district_id": "47", "school_district_id": "20", "ntaid": "BK28" }, "geometry": { "type": "Point", "coordinates": [ -73.987197563583976, 40.612245762673666 ] } },
{ "type": "Feature", "properties": { "name": "NYCDCAS: City Owned and Leased Properties;NYCDOE: LCGMS - DOE School Information Report", "poi_type": "Public K12", "address": "7000 21 Avenue,Brooklyn,11204.0", "census_tract_id": 36047025800, "community_district_id": "311", "city_council_district_id": "47", "school_district_id": "20", "ntaid": "BK28" }, "geometry": { "type": "Point", "coordinates": [ -73.987197563583976, 40.612245762673666 ] } },
{ "type": "Feature", "properties": { "name": "NYCDOE: Universal Pre-K (UPK) School Locations;NYCDOHMH: DOHMH Childcare Center Inspections", "poi_type": "Universal Pre K", "address": "6409 20 Avenue,Brooklyn,11204.0", "census_tract_id": 36047025400, "community_district_id": "311", "city_council_district_id": "47", "school_district_id": "20", "ntaid": "BK28" }, "geometry": { "type": "Point", "coordinates": [ -73.985245563940069, 40.616703761729568 ] } },